"","ID","Latitude","Longitude","Replicate","System","Class","Binomial","Common_name","Freq","sumlambda","avlambda","Trend","tslength","ndecline","location"
"1",1,46.23697,-100.77631,0,"Terrestrial","Aves","Aegolius_acadicus","Northern saw-whet owl",47,0.479007591516109,0.0104132085112198,"Increase",46,12,"46.23697,-100.77631"
"2",2,53.654053,-132.766173,1,"Terrestrial","Birds","Aegolius_acadicus","Saw-whet Owl",2,-0.0231164707758316,-0.00231164707758316,"Decline",10,10,"53.654053,-132.766173"
"3",3,51.85732,-128.86062,0,"Marine","Actinopterygii","Albatrossia_pectoralis","Giant grenadier",3,0.278484206947284,0.046414034491214,"Increase",6,2,"51.85732,-128.86062"
"4",4,49.31,-126.78,0,"Marine","Actinopterygii","Albatrossia_pectoralis","Giant grenadier",5,-0.277266798809474,-0.0231055665674562,"Decline",12,6,"49.31,-126.78"
"5",5,52,-132,0,"Marine","Actinopterygii","Albatrossia_pectoralis","Giant grenadier",7,0.0822805677579494,0.00822805677579494,"Increase",10,5,"52,-132"
"6",7,50.219196,-84.52551,0,"Terrestrial","Mammalia","Blarina_brevicauda","Northern short-tailed shrew",2,0.8750612633917,0.8750612633917,"Increase",1,0,"50.219196,-84.52551"
"7",8,50.219196,-84.52551,0,"Terrestrial","Mammalia","Napaeozapus_insignis","Woodland jumping mouse",2,-0.0669467896306132,-0.0669467896306132,"Decline",1,1,"50.219196,-84.52551"
"8",9,50.219196,-84.52551,0,"Terrestrial","Mammalia","Myodes_gapperi","Southern red-backed vole",2,-0.490909539205296,-0.490909539205296,"Decline",1,1,"50.219196,-84.52551"
"9",10,53.338146,-132.883849,1,"Marine","Fish","Albatrossia_pectoralis","Giant grenadier",6,0.270399812845346,0.0270399812845346,"Increase",10,3,"53.338146,-132.883849"
"10",11,46.778085,-72.957967,0,"Terrestrial","Mammalia","Alces_americanus","Moose",10,0.778151250383643,0.0172922500085254,"Increase",45,26,"46.778085,-72.957967"
"11",12,50.219196,-84.52551,0,"Terrestrial","Mammalia","Glaucomys_sabrinus","Northern flying squirrel",2,-0.176091259055681,-0.176091259055681,"Decline",1,1,"50.219196,-84.52551"
"12",13,48.893948,-64.351142,0,"Terrestrial","Mammalia","Alces_americanus","Moose",5,0.758407192187886,0.0216687769196539,"Increase",35,8,"48.893948,-64.351142"
"13",14,50.219196,-84.52551,0,"Terrestrial","Mammalia","Tamias_striatus","Eastern chipmunk",2,0.1249387366083,0.1249387366083,"Increase",1,0,"50.219196,-84.52551"
"14",15,51.533333,-118.516667,0,"Terrestrial","Mammalia","Alces_americanus","Moose",8,-0.531724379015009,-0.0759606255735727,"Decline",7,7,"51.533333,-118.516667"
"15",16,68.16667,-137,0,"Terrestrial","Mammalia","Alces_americanus","Moose",2,0.261792059711452,0.0237992781555866,"Increase",11,0,"68.16667,-137"
"16",17,48.60645,-56.33304,0,"Terrestrial","Mammalia","Alces_americanus","Moose",37,0.119230271585729,0.00331195198849247,"Increase",36,18,"48.60645,-56.33304"
"17",18,47.607599,-50.75978,0,"Marine","Actinopterygii","Aspidophoroides_monopterygius","Alligatorfish",25,0.309305021302112,0.0128877092209213,"Increase",24,14,"47.607599,-50.75978"
"18",19,46.56531,-66.46191,1,"Terrestrial","Mammalia","Alces_americanus","Moose",2,0.0891185553475733,0.0178237110695147,"Increase",5,0,"46.56531,-66.46191"
"19",20,47.637685,-63.728047,0,"Marine","Actinopterygii","Zoarces_americanus","Ocean pout",24,-0.327077538344679,-0.0136282307643616,"Decline",24,24,"47.637685,-63.728047"
"20",21,42.866877,-61.181309,0,"Marine","Actinopterygii","Citharichthys_arctifrons","Gulf Stream flounder",17,1.351991307966,0.0675995653982999,"Increase",20,9,"42.866877,-61.181309"
"21",22,52.39068,-102.61505,0,"Terrestrial","Mammalia","Alces_americanus","Moose",3,-0.204917585234387,-0.0256146981542984,"Decline",8,8,"52.39068,-102.61505"
"22",23,52.61972,-101.74713,0,"Terrestrial","Mammalia","Alces_americanus","Moose",3,-0.218055760599217,-0.0436111521198435,"Decline",5,5,"52.61972,-101.74713"
"23",24,53.18464,-102.63153,0,"Terrestrial","Mammalia","Alces_americanus","Moose",2,-0.0299632233774432,-0.00998774112581441,"Decline",3,3,"53.18464,-102.63153"
"24",25,53.80065,-108.22631,0,"Terrestrial","Mammalia","Alces_americanus","Moose",2,-0.0137882844856334,-0.00459609482854445,"Stable",3,3,"53.80065,-108.22631"
"25",26,47.637685,-63.728047,1,"Marine","Actinopterygii","Lumpenus_lampretaeformis","Snakeblenny",23,0.353437032854045,0.0153668275153933,"Increase",23,9,"47.637685,-63.728047"
"26",27,46.034584,-55.995809,0,"Marine","Actinopterygii","Nezumia_bairdii","Marlin-spike grenadier",24,-0.0163103814678669,-0.000679599227827788,"Stable",24,12,"46.034584,-55.995809"
"27",28,47.637685,-63.728047,1,"Marine","Actinopterygii","Myoxocephalus_scorpius","Shorthorn sculpin",22,0.0406787866976341,0.00169494944573475,"Increase",24,14,"47.637685,-63.728047"
"28",29,47.607599,-50.75978,0,"Marine","Actinopterygii","Notacanthus_chemnitzii","Snubnosed spiny eel",19,-0.862667241390839,-0.0375072713648191,"Decline",23,23,"47.607599,-50.75978"
"29",30,41.627502,-66.214847,0,"Marine","Actinopterygii","Hippoglossina_oblonga","American fourspot flounder",9,-0.176724104899045,-0.0196360116554494,"Decline",9,4,"41.627502,-66.214847"
"30",31,47.607599,-50.75978,0,"Marine","Actinopterygii","Ammodytes_dubius","Northern sand lance",25,0.313296697555231,0.0130540290648013,"Increase",24,10,"47.607599,-50.75978"
"31",32,50.695322,-52.121122,0,"Marine","Actinopterygii","Cottunculus_microps","Polar sculpin",17,0.637285999278221,0.030346952346582,"Increase",21,9,"50.695322,-52.121122"
"32",33,42.866877,-61.181309,0,"Marine","Actinopterygii","Peprilus_triacanthus","Butterfish",18,1.03348537999609,0.0449341469563519,"Increase",23,12,"42.866877,-61.181309"
"33",34,49.65063,-125.44939,0,"Terrestrial","Mammalia","Alces_americanus","Moose",9,-0.321218875225101,-0.0118969953787075,"Decline",27,16,"49.65063,-125.44939"
"34",35,42.866877,-61.181309,0,"Marine","Actinopterygii","Chlorophthalmus_agassizi","Shortnose greeneye",11,1.73771753558014,0.115847835705342,"Increase",15,7,"42.866877,-61.181309"
"35",36,50.695322,-52.121122,0,"Marine","Elasmobranchii","Bathyraja_spinicauda","Spinytail skate",20,-0.475816016456121,-0.0226579055455296,"Decline",21,13,"50.695322,-52.121122"
"36",37,42.729563,-65.098835,0,"Marine","Actinopterygii","Helicolenus_dactylopterus","Blackbelly rosefish",20,1.32430197026961,0.0551792487612338,"Increase",24,0,"42.729563,-65.098835"
"37",38,53.910492,-53.864595,0,"Marine","Actinopterygii","Synaphobranchus_kaupii","Kaup's arrowtooth eel",21,-0.878121639679001,-0.0418153161751905,"Decline",21,15,"53.910492,-53.864595"
"38",39,46.034584,-55.995809,0,"Marine","Elasmobranchii","Centroscyllium_fabricii","Black dogfish",23,2.08425241124429,0.0947387459656494,"Increase",22,0,"46.034584,-55.995809"
"39",40,53.910492,-53.864595,0,"Marine","Actinopterygii","Trachyrincus_murrayi","Roughnose grenadier",15,-0.83828824809569,-0.0523930155059806,"Decline",16,16,"53.910492,-53.864595"
"40",41,53.910492,-53.864595,0,"Marine","Actinopterygii","Boreogadus_saida","Polar cod / Arctic cod",23,0.813506672891028,0.0353698553430882,"Increase",23,0,"53.910492,-53.864595"
"41",42,42.729563,-65.098835,0,"Marine","Actinopterygii","Hemitripterus_americanus","Sea raven",25,0.287709270716486,0.0119878862798536,"Increase",24,12,"42.729563,-65.098835"
"42",43,42.866877,-61.181309,0,"Marine","Actinopterygii","Phycis_chesteri","Longfin hake",25,-1.13171759878023,-0.0471548999491764,"Decline",24,17,"42.866877,-61.181309"
"43",44,43.437611,-57.690888,0,"Marine","Actinopterygii","Artediellus_uncinatus","Arctic hookear sculpin",20,0.0824249523592702,0.00343437301496959,"Increase",24,10,"43.437611,-57.690888"
"44",45,47.607599,-50.75978,0,"Marine","Actinopterygii","Leptagonus_decagonus","Atlantic poacher",24,0.251162226444828,0.0104650927685345,"Increase",24,11,"47.607599,-50.75978"
"45",46,42.729563,-65.098835,1,"Marine","Actinopterygii","Argentina_silus","Atlantic argentine",25,0.581900641540233,0.0242458600641764,"Increase",24,11,"42.729563,-65.098835"
"46",47,42.866877,-61.181309,1,"Marine","Actinopterygii","Urophycis_chuss","Red hake",24,1.04317725664576,0.0434657190269068,"Increase",24,12,"42.866877,-61.181309"
"47",48,49.21759,-122.5003,0,"Terrestrial","Mammalia","Alces_americanus","Moose",9,0.123594260959031,0.00457756522070486,"Increase",27,12,"49.21759,-122.5003"
"48",49,50.25503,-120.69689,0,"Terrestrial","Mammalia","Alces_americanus","Moose",9,0.11394803221022,0.00422029748926741,"Increase",27,0,"50.25503,-120.69689"
"49",50,49.85923,-119.03137,0,"Terrestrial","Mammalia","Alces_americanus","Moose",9,0.562310635816817,0.0208263198450673,"Increase",27,0,"49.85923,-119.03137"
"50",51,49.70849,-116.81213,0,"Terrestrial","Mammalia","Alces_americanus","Moose",9,-0.0802019722424916,-0.00297044341638858,"Decline",27,27,"49.70849,-116.81213"
"51",52,52.40318,-123.45536,0,"Terrestrial","Mammalia","Alces_americanus","Moose",9,-0.091734832848129,-0.00339758640178256,"Decline",27,15,"52.40318,-123.45536"
"52",53,54.24977,-129.83266,0,"Terrestrial","Mammalia","Alces_americanus","Moose",9,-0.254499854126184,-0.009425920523192,"Decline",27,22,"54.24977,-129.83266"
"53",54,55.95301,-124.77368,0,"Terrestrial","Mammalia","Alces_americanus","Moose",9,0.100386244902501,0.00371800907046302,"Increase",27,9,"55.95301,-124.77368"
"54",55,58.05463,-124.89257,0,"Terrestrial","Mammalia","Alces_americanus","Moose",9,0.0954081080584865,0.0035336336317958,"Increase",27,0,"58.05463,-124.89257"
"55",56,50.285,-107.796944,0,"Terrestrial","Mammalia","Antilocapra_americana","Pronghorn",4,-0.377080049475242,-0.125693349825081,"Decline",3,2,"50.285,-107.796944"
"56",57,59.498332,-128.9788944,0,"Terrestrial","Mammalia","Alces_americanus","Moose",5,0.17107045768063,0.0427676144201575,"Increase",4,2,"59.498332,-128.9788944"
"57",58,46.459772,-60.782507,0,"Terrestrial","Mammals","Alces_americanus","Moose",6,-0.102808172679384,-0.00734344090567031,"Decline",14,3,"46.459772,-60.782507"
"58",59,46.7213,-60.722076,0,"Terrestrial","Mammals","Alces_americanus","Moose",7,-0.146128035678237,-0.0104377168341598,"Decline",14,8,"46.7213,-60.722076"
"59",60,52.872871,-117.953929,0,"Terrestrial","Mammals","Alces_americanus","Moose",2,0.216019205955633,0.216019205955633,"Increase",1,0,"52.872871,-117.953929"
"60",61,48.289722,-85.903961,0,"Terrestrial","Mammals","Alces_americanus","Moose",2,-0.138302698166281,-0.0230504496943802,"Decline",6,6,"48.289722,-85.903961"
"61",62,50.855683,-100.131889,0,"Terrestrial","Mammals","Alces_americanus","Moose",18,-0.23329680118401,-0.0137233412461183,"Decline",17,9,"50.855683,-100.131889"
"62",63,60.749785,-139.500032,0,"Terrestrial","Mammals","Alces_americanus","Moose",23,0.150703414026519,0.00470948168832873,"Increase",32,9,"60.749785,-139.500032"
"63",64,67.721111,-135.244167,0,"Freshwater","Actinopterygii","Salvelinus_malma","Dolly varden",3,0.124870818211956,0.0138745353568841,"Increase",9,7,"67.721111,-135.244167"
"64",65,53.637361,-112.857039,0,"Terrestrial","Mammals","Alces_americanus","Moose",45,0.471233054648823,0.0100262352052941,"Increase",47,22,"53.637361,-112.857039"
"65",66,53.637361,-112.857039,0,"Terrestrial","Mammals","Alces_americanus","Moose",45,-0.891019609042816,-0.0189578640221876,"Decline",47,29,"53.637361,-112.857039"
"66",67,60.749785,-139.500032,0,"Terrestrial","Mammals","Alces_americanus","Moose",33,-0.0858280557640131,-0.00238411266011147,"Decline",36,22,"60.749785,-139.500032"
"67",68,45.55,-66.52,0,"Freshwater","Actinopterygii","Alosa_pseudoharengus","Anadromous alewife",21,1.95479562328381,0.0977397811641904,"Increase",20,5,"45.55,-66.52"
"68",69,46.03458383,-55.99580924,0,"Marine","Actinopterygii","Alosa_pseudoharengus","Anadromous alewife",7,-0.223911913003043,-0.0203556284548221,"Decline",11,5,"46.03458383,-55.99580924"
"69",70,47.63768534,-63.7280474,1,"Marine","Actinopterygii","Alosa_pseudoharengus","Anadromous alewife",25,0.616503689587414,0.0256876537328089,"Increase",24,14,"47.63768534,-63.7280474"
"70",71,53.166667,-130.833333,0,"Marine","Actinopterygii","Citharichthys_stigmaeus","Speckled sanddab",4,-1.01223445641701,-0.126529307052127,"Decline",8,6,"53.166667,-130.833333"
"71",72,46.44191714,-59.34894137,0,"Marine","Actinopterygii","Alosa_pseudoharengus","Anadromous alewife",6,-0.171292297295647,-0.0244703281850924,"Decline",7,3,"46.44191714,-59.34894137"
"72",73,53.166667,-130.833333,0,"Marine","Actinopterygii","Podothecus_accipenserinus","Sturgeon poacher",5,0.508155488459631,0.0362968206042594,"Increase",14,2,"53.166667,-130.833333"
"73",74,43.43761069,-57.69088789,0,"Marine","Actinopterygii","Alosa_pseudoharengus","Anadromous alewife",5,-0.944688228564364,-0.0787240190470303,"Decline",12,10,"43.43761069,-57.69088789"
"74",75,42.86687747,-61.18130929,0,"Marine","Actinopterygii","Alosa_pseudoharengus","Anadromous alewife",18,1.64917308420053,0.0749624129182059,"Increase",22,7,"42.86687747,-61.18130929"
"75",76,42.72956311,-65.0988351,0,"Marine","Actinopterygii","Alosa_pseudoharengus","Anadromous alewife",25,0.653413400087276,0.0272255583369698,"Increase",24,7,"42.72956311,-65.0988351"
"76",77,44.26602876,-67.06471654,0,"Marine","Actinopterygii","Alosa_pseudoharengus","Anadromous alewife",18,0.17615775841085,0.00765903297438479,"Increase",23,0,"44.26602876,-67.06471654"
"77",78,41.62750249,-66.21484739,0,"Marine","Actinopterygii","Alosa_pseudoharengus","Anadromous alewife",7,-1.36352056251868,-0.227253427086447,"Decline",6,4,"41.62750249,-66.21484739"
"78",79,47,-63,0,"Marine","Actinopterygii","Alosa_pseudoharengus","Anadromous alewife",46,-0.265359765887207,-0.00589688368638238,"Decline",45,24,"47,-63"
"79",80,44.19795,-61.56738,1,"Marine","Actinopterygii","Alosa_pseudoharengus","Alewife",2,0.269996881576982,0.0674992203942455,"Increase",4,0,"44.19795,-61.56738"
"80",81,44.19795,-61.56738,0,"Marine","Actinopterygii","Alosa_pseudoharengus","Alewife",14,0.954490669361027,0.0477245334680514,"Increase",20,0,"44.19795,-61.56738"
"81",82,43.2532,-65.50048,0,"Marine","Actinopterygii","Alosa_pseudoharengus","Alewife",10,0.303838501194395,0.0159915000628629,"Increase",19,9,"43.2532,-65.50048"
"82",83,41.970728,-82.517801,0,"Freshwater","Actinopterygii","Lepomis_gulosus","Warmouth",2,-0.00477157850439019,-0.00477157850439019,"Stable",1,1,"41.970728,-82.517801"
"83",84,46.416091,-63.074093,0,"Freshwater","Fish","Alosa_pseudoharengus","Gaspereux",11,-2.72110539792259,-0.247373217992962,"Decline",11,11,"46.416091,-63.074093"
"84",85,41.970728,-82.517801,0,"Freshwater","Actinopterygii","Noturus_gyrinus","Tadpole madtom",2,-0.894346783097686,-0.894346783097686,"Decline",1,1,"41.970728,-82.517801"
"85",86,41.970728,-82.517801,0,"Freshwater","Actinopterygii","Ameiurus_natalis","Yellow bullhead",2,0.258796861811635,0.258796861811635,"Increase",1,0,"41.970728,-82.517801"
"86",87,53.166667,-130.833333,0,"Marine","Actinopterygii","Ammodytes_hexapterus","Pacific sand lance",8,0.602059991327964,0.0376287494579977,"Increase",16,5,"53.166667,-130.833333"
"87",88,41.970728,-82.517801,0,"Freshwater","Actinopterygii","Ameiurus_melas","Black bullhead",2,-0.0134627866534068,-0.0134627866534068,"Stable",1,1,"41.970728,-82.517801"
"88",89,47.63768534,-63.7280474,1,"Marine","Actinopterygii","Alosa_sapidissima","American Shad",12,-0.706829616165331,-0.0372015587455437,"Decline",19,14,"47.63768534,-63.7280474"
"89",90,41.970728,-82.517801,0,"Freshwater","Actinopterygii","Ictiobus_cyprinellus","Bigmouth buffalo",2,0.783111461083725,0.783111461083725,"Increase",1,0,"41.970728,-82.517801"
"90",91,41.970728,-82.517801,0,"Freshwater","Actinopterygii","Umbra_limi","Central mudminnow",2,-0.324832910336606,-0.324832910336606,"Decline",1,1,"41.970728,-82.517801"
"91",93,41.970728,-82.517801,0,"Freshwater","Actinopterygii","Lepisosteus_oculatus","Spotted gar",2,-0.238405655069835,-0.238405655069835,"Decline",1,1,"41.970728,-82.517801"
"92",94,53.166667,-130.833333,0,"Marine","Actinopterygii","Anarrhichthys_ocellatus","Wolf-eel",10,0.375599075692063,0.0197683724048454,"Increase",19,8,"53.166667,-130.833333"
"93",95,42.86687747,-61.18130929,0,"Marine","Actinopterygii","Alosa_sapidissima","American Shad",13,-0.231244223205598,-0.0144527639503499,"Decline",16,9,"42.86687747,-61.18130929"
"94",96,42.72956311,-65.0988351,0,"Marine","Actinopterygii","Alosa_sapidissima","American Shad",24,0.933599128980242,0.0388999637075101,"Increase",24,0,"42.72956311,-65.0988351"
"95",97,44.26602876,-67.06471654,0,"Marine","Actinopterygii","Alosa_sapidissima","American Shad",6,-0.406743121121751,-0.0312879323939808,"Decline",13,7,"44.26602876,-67.06471654"
"96",98,41.62750249,-66.21484739,0,"Marine","Actinopterygii","Alosa_sapidissima","American Shad",5,0.212433614669531,0.0424867229339062,"Increase",5,2,"41.62750249,-66.21484739"
"97",99,47,-63,0,"Marine","Actinopterygii","Alosa_sapidissima","American Shad",21,-1.10672750594767,-0.025152897862447,"Decline",44,25,"47,-63"
"98",100,44.19795,-61.56738,1,"Marine","Actinopterygii","Alosa_sapidissima","Shad American",6,-0.0413698759768403,-0.00413698759768403,"Decline",10,4,"44.19795,-61.56738"
"99",101,44.19795,-61.56738,0,"Marine","Actinopterygii","Alosa_sapidissima","Shad American",13,1.26350294993462,0.0665001552597166,"Increase",19,8,"44.19795,-61.56738"
"100",102,43.2532,-65.50048,1,"Marine","Actinopterygii","Alosa_sapidissima","Shad American",12,0.620882115638228,0.0564438286943843,"Increase",11,0,"43.2532,-65.50048"
"101",103,43.2532,-65.50048,1,"Marine","Actinopterygii","Alosa_sapidissima","Shad American",13,-0.412332292211812,-0.0343610243509843,"Decline",12,12,"43.2532,-65.50048"
"102",104,43.2532,-65.50048,0,"Marine","Actinopterygii","Alosa_sapidissima","Shad American",22,0.41459254980826,0.0197425023718219,"Increase",21,7,"43.2532,-65.50048"
"103",105,51.85732,-128.86062,1,"Marine","Actinopterygii","Alosa_sapidissima","American Shad",2,0.333214679035382,0.0302922435486711,"Increase",11,0,"51.85732,-128.86062"
"104",106,53.17,-130.82,1,"Marine","Actinopterygii","Alosa_sapidissima","American Shad",2,0.0241336797167193,0.00301670996458991,"Increase",8,0,"53.17,-130.82"
"105",107,49.31,-126.78,1,"Marine","Actinopterygii","Alosa_sapidissima","American Shad",7,1.5572183023022,0.129768191858516,"Increase",12,4,"49.31,-126.78"
"106",108,49.35,-123.87,0,"Marine","Fish","Alosa_sapidissima","American Shad",2,-0.877693170228552,-0.292564390076184,"Decline",3,3,"49.35,-123.87"
"107",109,43.083333,-50,0,"Marine","Actinopterygii","Ammodytes_dubius","Northern sand lance",10,0.784971338489007,0.0872190376098896,"Increase",9,5,"43.083333,-50"
"108",110,49.31,-126.78,1,"Marine","Fish","Alosa_sapidissima","American Shad",7,1.43837362217776,0.119864468514813,"Increase",12,4,"49.31,-126.78"
"109",111,43.083333,-50,0,"Marine","Actinopterygii","Nezumia_bairdii","Marlin-spike grenadier",10,0.121437827682081,0.0134930919646757,"Increase",9,5,"43.083333,-50"
"110",112,43.083333,-50,0,"Marine","Actinopterygii","Reinhardtius_hippoglossoides","Greenland halibut",15,-0.385053138872334,-0.0275037956337381,"Decline",14,9,"43.083333,-50"
"111",113,43.083333,-50,0,"Marine","Actinopterygii","Mallotus_villosus","Capelin",10,0.0820616422061798,0.00911796024513109,"Increase",9,5,"43.083333,-50"
"112",114,45.160229,-74.381869,0,"Freshwater","Actinopterygii","Ambloplites_rupestris","Rock bass",14,0.0201642964291009,0.000720153443896461,"Stable",28,16,"45.160229,-74.381869"
"113",115,49.668,-93.733,0,"Freshwater","Actinopterygii","Margariscus_margarita","Allegheny pearl dace",7,-0.228729454930107,-0.0381215758216845,"Decline",6,5,"49.668,-93.733"
"114",116,49.668056,-93.733333,0,"Freshwater","Actinopterygii","Pimephales_promelas","Fathead minnow",7,-0.258865688481207,-0.0431442814135345,"Decline",6,3,"49.668056,-93.733333"
"115",117,59.871111,-91.911111,0,"Marine","Mammalia","Pusa_hispida","Ringed seal",8,-0.224469294759344,-0.0149646196506229,"Decline",15,5,"59.871111,-91.911111"
"116",118,43.62142,-79.361398,1,"Freshwater","Actinopterygii","Ambloplites_rupestris","Rock bass",4,1.15817966974698,0.19302994495783,"Increase",6,0,"43.62142,-79.361398"
"117",119,44.152886,-77.229936,1,"Freshwater","Actinopterygii","Ambloplites_rupestris","Rock bass",20,0.655751613486805,0.0327875806743402,"Increase",20,0,"44.152886,-77.229936"
"118",120,43.28331,-79.85068,0,"Freshwater","Actinopterygii","Ambloplites_rupestris","Rock bass",6,0.253605345735843,0.028178371748427,"Increase",9,3,"43.28331,-79.85068"
"119",121,71.205,-116.625,0,"Freshwater","Actinopterygii","Salvelinus_alpinus","Arctic charr",17,0.648052365453727,0.038120727379631,"Increase",17,6,"71.205,-116.625"
"120",122,45,-66,0,"Marine","Elasmobranchii","Cetorhinus_maximus","Basking shark",19,-0.714989127573368,-0.0397216181985205,"Decline",18,18,"45,-66"
"121",123,43.99472,-77.72313,0,"Freshwater","Actinopterygii","Ambloplites_rupestris","Rock bass",2,0.100060445510026,0.0142943493585752,"Increase",7,0,"43.99472,-77.72313"
"122",124,44.01301,-77.59299,0,"Freshwater","Actinopterygii","Ambloplites_rupestris","Rock bass",3,0.230448921378274,0.0164606372413053,"Increase",14,7,"44.01301,-77.59299"
"123",125,44.149251,-77.22225,1,"Freshwater","Actinopterygii","Ambloplites_rupestris","Rock bass",14,0.877385730375609,0.0626704093125435,"Increase",14,0,"44.149251,-77.22225"
"124",126,49.24809,-126.19034,0,"Marine","Mammalia","Eschrichtius_robustus","Grey whale / Gray whale",17,0.234331156109038,0.0146456972568149,"Increase",16,7,"49.24809,-126.19034"
"125",127,47.416667,-62.916667,1,"Marine","Actinopterygii","Aspidophoroides_monopterygius","Alligatorfish",40,1.61151874837449,0.0402879687093622,"Increase",40,0,"47.416667,-62.916667"
"126",128,47.416667,-62.916667,1,"Marine","Actinopterygii","Enchelyopus_cimbrius","Fourbeard rockling",34,0.472924672515088,0.012126273654233,"Increase",39,18,"47.416667,-62.916667"
"127",129,47.416667,-62.916667,1,"Marine","Actinopterygii","Triglops_murrayi","Moustache sculpin",39,-0.635454835260238,-0.0154988984209814,"Decline",41,23,"47.416667,-62.916667"
"128",130,49.689167,-57.736944,0,"Terrestrial","Mammalia","Lepus_arcticus","Arctic hare",5,0.237656387729281,0.0237656387729281,"Increase",10,3,"49.689167,-57.736944"
"129",131,49.64164,-59.118548,0,"Marine","Mammalia","Megaptera_novaeangliae","Humpback whale",4,-0.416164828778237,-0.138721609592746,"Decline",3,2,"49.64164,-59.118548"
"130",132,54.718454,-55.731995,0,"Marine","Mammalia","Megaptera_novaeangliae","Humpback whale",7,-0.139547690366916,-0.023257948394486,"Decline",6,4,"54.718454,-55.731995"
"131",133,55.877186,-111.158064,0,"Terrestrial","Mammalia","Lasionycteris_noctivagans","Silver-haired bat",7,0.581209852354844,0.0830299789078349,"Increase",7,3,"55.877186,-111.158064"
"132",134,55.877186,-111.158064,0,"Terrestrial","Mammalia","Myotis_septentrionalis","Northern myotis",6,0.1885005170375,0.0314167528395834,"Increase",6,3,"55.877186,-111.158064"
"133",135,55.877186,-111.158064,0,"Terrestrial","Mammalia","Myotis_lucifugus","Little brown bat",7,-0.638272163982408,-0.0911817377117726,"Decline",7,2,"55.877186,-111.158064"
"134",136,76.001667,-85.999722,0,"Marine","Mammalia","Odobenus_rosmarus","Pacific walrus",12,0.126433727695251,0.00395105399047661,"Increase",32,27,"76.001667,-85.999722"
"135",137,74.21822,-83.9992,0,"Marine","Mammalia","Odobenus_rosmarus","Pacific walrus",12,-0.26429504776788,-0.00825922024274624,"Decline",32,26,"74.21822,-83.9992"
"136",138,64.284513,-63.277839,0,"Marine","Mammalia","Odobenus_rosmarus","Pacific walrus",4,0.095774601951142,0.0319248673170473,"Increase",3,1,"64.284513,-63.277839"
"137",139,50.822181,-120.460772,0,"Terrestrial","Mammalia","Myodes_gapperi","Southern red-backed vole",4,-0.674935580586341,-0.224978526862114,"Decline",3,3,"50.822181,-120.460772"
"138",140,49,-59,0,"Marine","Actinopterygii","Mallotus_villosus","Capelin",25,0.486438551443646,0.0187091750555249,"Increase",26,6,"49,-59"
"139",141,46.968577,-51.946243,0,"Marine","Mammalia","Orcinus_orca","Killer whale / Orca",41,0.871796858257542,0.0217949214564385,"Increase",40,16,"46.968577,-51.946243"
"140",142,48.903526,-125.275495,0,"Marine","Myxini","Eptatretus_stoutii","Pacific hagfish",7,-0.337242168318425,-0.0259417052552635,"Decline",13,4,"48.903526,-125.275495"
"141",143,43,-65.3,0,"Marine","Actinopterygii","Brosme_brosme","Tusk / Cusk",37,-1.07020244946077,-0.0297278458183547,"Decline",36,21,"43,-65.3"
"142",144,61.623636,-116.12548,0,"Terrestrial","Mammalia","Lynx_canadensis","Canadian lynx",5,-0.477121254719663,-0.119280313679916,"Decline",4,1,"61.623636,-116.12548"
"143",145,49.099444,-123.185833,0,"Terrestrial","Mammalia","Microtus_townsendii","Townsend's vole",3,0.141900137588018,0.070950068794009,"Increase",2,1,"49.099444,-123.185833"
"144",146,51.33,-121.51,0,"Terrestrial","Mammalia","Glaucomys_sabrinus","Northern flying squirrel",3,0.057991946977687,0.0289959734888435,"Increase",2,1,"51.33,-121.51"
"145",147,55.05,-113.11667,0,"Terrestrial","Mammalia","Myodes_gapperi","Southern red-backed vole",3,0.330526668940309,0.165263334470154,"Increase",2,0,"55.05,-113.11667"
"146",148,49.249515,-85.58269,0,"Terrestrial","Mammalia","Sorex_cinereus","Masked shrew",4,1,0.333333333333333,"Increase",3,1,"49.249515,-85.58269"
"147",149,49.24,-85.58,0,"Terrestrial","Mammalia","Myodes_gapperi","Southern red-backed vole",4,-1.1627272974977,-0.387575765832567,"Decline",3,3,"49.24,-85.58"
"148",150,49.165606,-117.721311,0,"Freshwater","Actinopterygii","Acipenser_transmontanus","White sturgeon",11,1.24508052293673,0.0889343230669096,"Increase",14,6,"49.165606,-117.721311"
"149",151,54.266485,-122.233677,0,"Terrestrial","Mammalia","Myodes_gapperi","Southern red-backed vole",5,-0.33707509984862,-0.0674150199697241,"Decline",5,4,"54.266485,-122.233677"
"150",152,45.009168,-66.915904,0,"Marine","Mammalia","Phocoena_phocoena","Harbour porpoise",9,-0.382515516623965,-0.0478144395779956,"Decline",8,5,"45.009168,-66.915904"
"151",153,45.009941,-66.933194,0,"Marine","Mammalia","Phocoena_phocoena","Harbour porpoise",9,-0.576988036357951,-0.0721235045447439,"Decline",8,8,"45.009941,-66.933194"
"152",154,50.141667,-113.761142,0,"Terrestrial","Mammalia","Mustela_frenata","Long-tailed weasel",3,0.0555173278498313,0.0277586639249157,"Increase",2,1,"50.141667,-113.761142"
"153",155,51.063858,-115.369996,0,"Freshwater","Amphibia","Ambystoma_macrodactylum","Long-toed salamander",4,0.085235575342923,0.028411858447641,"Increase",3,2,"51.063858,-115.369996"
"154",156,44.40811,-75.8741,0,"Freshwater","Reptilia","Graptemys_geographica","Northern map turtle",2,0.167108402981668,0.167108402981668,"Increase",1,0,"44.40811,-75.8741"
"155",157,48.077602,-69.555988,0,"Marine","Mammalia","Phoca_vitulina","Harbour seal",4,0.228935813268302,0.0763119377561006,"Increase",3,0,"48.077602,-69.555988"
"156",158,48.077602,-69.555988,0,"Marine","Mammalia","Halichoerus_grypus","Grey seal",4,0.701311220150921,0.233770406716974,"Increase",3,2,"48.077602,-69.555988"
"157",159,45.029279,-78.432602,0,"Freshwater","Amphibia","Pseudacris_triseriata","Western chorus frog",12,-0.437837683167744,-0.0398034257425222,"Decline",11,11,"45.029279,-78.432602"
"158",160,43.095367,-81.069321,0,"Freshwater","Amphibia","Pseudacris_triseriata","Western chorus frog",12,0.156732374959241,0.0142483977235674,"Increase",11,5,"43.095367,-81.069321"
"159",161,78.310956,-95.276473,0,"Marine","Mammalia","Ursus_maritimus","Polar bear",4,0.266267889404769,0.0665669723511922,"Increase",4,1,"78.310956,-95.276473"
"160",162,74.646079,-92.875263,0,"Marine","Mammalia","Ursus_maritimus","Polar bear",5,0.5572476469116,0.1393119117279,"Increase",4,0,"74.646079,-92.875263"
"161",163,53.257559,-50.28156,1,"Marine","Actinopterygii","Coryphaenoides_rupestris","Roundnose grenadier",16,-1.52724781664245,-0.0898381068613207,"Decline",17,17,"53.257559,-50.28156"
"162",164,50.936521,-50.457342,1,"Marine","Actinopterygii","Coryphaenoides_rupestris","Roundnose grenadier",2,0.61395921462767,0.61395921462767,"Increase",1,0,"50.936521,-50.457342"
"163",165,50.936521,-50.457342,0,"Marine","Actinopterygii","Coryphaenoides_rupestris","Roundnose grenadier",15,0.287567130245529,0.0205405093032521,"Increase",14,0,"50.936521,-50.457342"
"164",166,53.257559,-50.28156,0,"Marine","Actinopterygii","Coryphaenoides_rupestris","Roundnose grenadier",15,0.0712704168088757,0.00509074405777683,"Increase",14,0,"53.257559,-50.28156"
"165",167,44.204538,-52.940252,0,"Marine","Actinopterygii","Coryphaenoides_rupestris","Roundnose grenadier",13,0.469074071339015,0.0360826208722319,"Increase",13,0,"44.204538,-52.940252"
"166",168,41.630515,-47.315252,0,"Marine","Actinopterygii","Coryphaenoides_rupestris","Roundnose grenadier",11,-0.690242472773195,-0.0530955748287073,"Decline",13,13,"41.630515,-47.315252"
"167",169,48.040155,-49.688298,0,"Marine","Actinopterygii","Coryphaenoides_rupestris","Roundnose grenadier",14,-0.03564116353268,-0.00274162796405231,"Decline",13,7,"48.040155,-49.688298"
"168",170,44.42804,-66.089296,0,"Marine","Actinopterygii","Zoarces_americanus","Ocean pout",8,-1.31429255564428,-0.187756079377754,"Decline",7,5,"44.42804,-66.089296"
"169",171,60.933633,-138.277537,0,"Terrestrial","Mammalia","Phenacomys_intermedius","Western heather vole",5,-0.778151250383643,-0.194537812595911,"Decline",4,3,"60.933633,-138.277537"
"170",172,60.933633,-138.277537,0,"Terrestrial","Mammalia","Microtus_oeconomus","Root vole",5,-0.56987530795656,-0.14246882698914,"Decline",4,2,"60.933633,-138.277537"
"171",173,60.933633,-138.277537,0,"Terrestrial","Mammalia","Myodes_rutilus","Northern red-backed vole",5,-0.396328524515458,-0.0990821311288645,"Decline",4,2,"60.933633,-138.277537"
"172",174,42.166667,-82.5,0,"Freshwater","Reptilia","Graptemys_geographica","Northern map turtle",2,0.301029995663981,0.0100343331887994,"Increase",30,0,"42.166667,-82.5"
"173",175,51.268162,-117.623318,0,"Terrestrial","Mammalia","Gulo_gulo","Wolverine",2,-0.0280287236002436,-0.0280287236002436,"Decline",1,1,"51.268162,-117.623318"
"174",176,55.86546,-124.563161,0,"Terrestrial","Mammalia","Gulo_gulo","Wolverine",2,-0.176091259055681,-0.176091259055681,"Decline",1,1,"55.86546,-124.563161"
"175",177,49.182231,-89.473603,0,"Terrestrial","Mammalia","Tamias_striatus","Eastern chipmunk",3,1.05636084488875,0.528180422444375,"Increase",2,0,"49.182231,-89.473603"
"176",178,48.575324,-82.134735,0,"Terrestrial","Mammalia","Tamias_striatus","Eastern chipmunk",3,0.142094000243059,0.0710470001215295,"Increase",2,1,"48.575324,-82.134735"
"177",179,48.822374,-89.337252,0,"Terrestrial","Mammalia","Myodes_gapperi","Southern red-backed vole",3,-0.319457233742678,-0.159728616871339,"Decline",2,1,"48.822374,-89.337252"
"178",180,46.634905,-79.146454,0,"Terrestrial","Mammalia","Tamias_striatus","Eastern chipmunk",3,-0.050979656119495,-0.0254898280597475,"Decline",2,1,"46.634905,-79.146454"
"179",181,48.444828,-82.448825,0,"Terrestrial","Mammalia","Myodes_gapperi","Southern red-backed vole",3,-0.707905193081801,-0.3539525965409,"Decline",2,2,"48.444828,-82.448825"
"180",182,46.416229,-79.087009,0,"Terrestrial","Mammalia","Myodes_gapperi","Southern red-backed vole",3,-0.472115676410773,-0.236057838205387,"Decline",2,1,"46.416229,-79.087009"
"181",183,45.75,-61.25,0,"Terrestrial","Mammalia","Canis_latrans","Coyote",2,0.273783080523119,0.273783080523119,"Increase",1,0,"45.75,-61.25"
"182",184,44.333333,-65.25,0,"Terrestrial","Mammalia","Canis_latrans","Coyote",2,-0.19260634712124,-0.19260634712124,"Decline",1,1,"44.333333,-65.25"
"183",185,45.160229,-74.381869,0,"Freshwater","Actinopterygii","Ameiurus_nebulosus","Brown bullhead",14,-0.51634784602089,-0.0184409945007461,"Decline",28,15,"45.160229,-74.381869"
"184",186,45.160229,-74.381869,0,"Freshwater","Actinopterygii","Lepisosteus_osseus","Longnose gar",9,-0.0193051551953864,-0.000742505969053323,"Stable",26,14,"45.160229,-74.381869"
"185",187,44.149251,-77.22225,1,"Freshwater","Actinopterygii","Ictalurus_punctatus","Channel catfish",14,-1.14614317110779,-0.0818673693648423,"Decline",14,14,"44.149251,-77.22225"
"186",188,44.149251,-77.22225,0,"Freshwater","Actinopterygii","Moxostoma_carinatum","River redhorse",11,-0.134698573897457,-0.00962132670696122,"Decline",14,7,"44.149251,-77.22225"
"187",189,44.149251,-77.22225,0,"Freshwater","Actinopterygii","Moxostoma_valenciennesi","Greater redhorse",9,-0.196294645143968,-0.0163578870953307,"Decline",12,4,"44.149251,-77.22225"
"188",190,44.149251,-77.22225,0,"Freshwater","Actinopterygii","Moxostoma_macrolepidotum","Shorthead redhorse",12,-0.194947471010153,-0.0162456225841794,"Decline",12,12,"44.149251,-77.22225"
"189",191,44.149251,-77.22225,0,"Freshwater","Actinopterygii","Moxostoma_anisurum","Silver redhorse",12,-0.367755450496309,-0.0306462875413591,"Decline",12,12,"44.149251,-77.22225"
"190",192,44.149251,-77.22225,0,"Freshwater","Actinopterygii","Amia_calva","Bowfin",14,0.473862477799315,0.0338473198428082,"Increase",14,0,"44.149251,-77.22225"
"191",193,44.149251,-77.22225,1,"Freshwater","Actinopterygii","Lepisosteus_osseus","Longnose gar",13,0.301334814951907,0.0215239153537076,"Increase",14,0,"44.149251,-77.22225"
"192",194,43.62142,-79.361398,1,"Freshwater","Actinopterygii","Aplodinotus_grunniens","Freshwater drum",4,-0.234083206033368,-0.039013867672228,"Decline",6,5,"43.62142,-79.361398"
"193",195,43.62142,-79.361398,0,"Freshwater","Actinopterygii","Morone_chrysops","White bass",3,-0.916453948549924,-0.152742324758321,"Decline",6,4,"43.62142,-79.361398"
"194",196,43.62142,-79.361398,1,"Freshwater","Actinopterygii","Ictalurus_punctatus","Channel catfish",3,0.301029995663982,0.050171665943997,"Increase",6,2,"43.62142,-79.361398"
"195",197,43.62142,-79.361398,1,"Freshwater","Actinopterygii","Ameiurus_nebulosus","Brown bullhead",4,0.783048116473656,0.130508019412276,"Increase",6,4,"43.62142,-79.361398"
"196",198,43.62142,-79.361398,1,"Freshwater","Actinopterygii","Dorosoma_cepedianum","American gizzard shad",4,-0.399545535387456,-0.066590922564576,"Decline",6,4,"43.62142,-79.361398"
"197",199,43.62142,-79.361398,0,"Freshwater","Actinopterygii","Amia_calva","Bowfin",4,0.104735350520013,0.0174558917533356,"Increase",6,3,"43.62142,-79.361398"
"198",200,44.152886,-77.229936,1,"Freshwater","Actinopterygii","Morone_chrysops","White bass",21,0.952673576421668,0.0476336788210834,"Increase",20,8,"44.152886,-77.229936"
"199",201,44.152886,-77.229936,0,"Freshwater","Actinopterygii","Etheostoma_nigrum","Johnny darter",16,0.207589744714381,0.0103794872357191,"Increase",20,10,"44.152886,-77.229936"
"200",202,44.152886,-77.229936,1,"Freshwater","Actinopterygii","Aplodinotus_grunniens","Freshwater drum",21,0.170455474459528,0.00852277372297639,"Increase",20,6,"44.152886,-77.229936"
"201",203,44.152886,-77.229936,0,"Freshwater","Actinopterygii","Percopsis_omiscomaycus","Trout-perch",21,-0.603636223417073,-0.0301818111708537,"Decline",20,12,"44.152886,-77.229936"
"202",204,44.152886,-77.229936,1,"Freshwater","Actinopterygii","Ameiurus_nebulosus","Brown bullhead",21,-1.05374402291178,-0.0526872011455888,"Decline",20,17,"44.152886,-77.229936"
"203",205,44.152886,-77.229936,1,"Freshwater","Actinopterygii","Dorosoma_cepedianum","American gizzard shad",21,0.410393219444178,0.0205196609722089,"Increase",20,10,"44.152886,-77.229936"
"204",206,43.947746,-77.547686,0,"Freshwater","Actinopterygii","Prosopium_cylindraceum","Round whitefish",14,-0.916713372662545,-0.0482480722453971,"Decline",19,10,"43.947746,-77.547686"
"205",207,50.037337,-51.19117,0,"Marine","Actinopterygii","Antimora_rostrata","Blue antimora",7,0.508845903914376,0.0848076506523961,"Increase",6,1,"50.037337,-51.19117"
"206",208,50.037337,-51.19117,1,"Marine","Actinopterygii","Antimora_rostrata","Blue antimora",17,-1.49573800355048,-0.0934836252219052,"Decline",16,16,"50.037337,-51.19117"
"207",209,43.15568,-65.50097,0,"Marine","Actinopterygii","Thunnus_thynnus","Atlantic bluefin tuna / Northern bluefin tuna",22,-0.372439718793058,-0.0177352247044313,"Decline",21,11,"43.15568,-65.50097"
"208",210,46.967671,-62.814813,0,"Marine","Actinopterygii","Thunnus_thynnus","Atlantic bluefin tuna / Northern bluefin tuna",29,0.348449713289432,0.0124446326174797,"Increase",28,12,"46.967671,-62.814813"
"209",211,50.689576,-115.14848,0,"Freshwater","Actinopterygii","Salvelinus_confluentus","Bull trout",9,1.50563442976549,0.150563442976549,"Increase",10,2,"50.689576,-115.14848"
"210",212,49.666667,-119.883333,0,"Terrestrial","Mammalia","Mustela_erminea","Stoat / Short-tailed weasel / Ermine",3,0.067261609856,0.033630804928,"Increase",2,1,"49.666667,-119.883333"
"211",213,49.666667,-119.883333,0,"Terrestrial","Mammalia","Sorex_cinereus","Masked shrew",3,-0.278035504326881,-0.13901775216344,"Decline",2,1,"49.666667,-119.883333"
"212",214,49.666667,-119.883333,0,"Terrestrial","Mammalia","Zapus_princeps","Western jumping mouse / Pacific jumping mouse",3,0.651046452018836,0.325523226009418,"Increase",2,0,"49.666667,-119.883333"
"213",215,49.666667,-119.883333,0,"Terrestrial","Mammalia","Microtus_longicaudus","Long-tailed vole",4,0.281299530622481,0.0148052384538148,"Increase",19,1,"49.666667,-119.883333"
"214",216,49.666667,-119.883333,0,"Terrestrial","Mammalia","Phenacomys_intermedius","Western heather vole",3,0.354758106741314,0.177379053370657,"Increase",2,0,"49.666667,-119.883333"
"215",217,49.666667,-119.883333,0,"Terrestrial","Mammalia","Myodes_gapperi","Southern red-backed vole",3,0.299216654900513,0.149608327450257,"Increase",2,0,"49.666667,-119.883333"
"216",218,52.054271,-52.757812,0,"Marine","Actinopterygii","Anarhichas_minor","Spotted wolffish",15,0.668706623536753,0.0477647588240538,"Increase",14,0,"52.054271,-52.757812"
"217",219,52.054271,-52.757812,0,"Marine","Actinopterygii","Anarhichas_denticulatus","Northern wolffish",15,0.601856246299166,0.0429897318785119,"Increase",14,6,"52.054271,-52.757812"
"218",220,52.054271,-52.757812,1,"Marine","Actinopterygii","Anarhichas_minor","Spotted wolffish",18,-1.58115701693103,-0.0930092362900607,"Decline",17,17,"52.054271,-52.757812"
"219",221,52.054271,-52.757812,1,"Marine","Actinopterygii","Anarhichas_denticulatus","Northern wolffish",18,-2.33778818760351,-0.137516952211971,"Decline",17,17,"52.054271,-52.757812"
"220",222,46.711721,-56.383301,0,"Marine","Actinopterygii","Anarhichas_minor","Spotted wolffish",10,0.00734382571215231,0.000667620519286573,"Stable",11,0,"46.711721,-56.383301"
"221",223,46.711721,-56.383301,0,"Marine","Actinopterygii","Anarhichas_denticulatus","Northern wolffish",5,0.248446518110151,0.0207038765091792,"Increase",12,1,"46.711721,-56.383301"
"222",224,46.711721,-56.383301,1,"Marine","Actinopterygii","Anarhichas_minor","Spotted wolffish",5,0.26555504192385,0.0295061157693167,"Increase",9,8,"46.711721,-56.383301"
"223",225,46.711721,-56.383301,1,"Marine","Actinopterygii","Anarhichas_denticulatus","Northern wolffish",5,-1.50376547075669,-0.214823638679528,"Decline",7,5,"46.711721,-56.383301"
"224",226,46.711721,-56.383301,1,"Marine","Actinopterygii","Anarhichas_minor","Spotted wolffish",7,-0.129896250364452,-0.021649375060742,"Decline",6,3,"46.711721,-56.383301"
"225",227,46.711721,-56.383301,1,"Marine","Actinopterygii","Anarhichas_denticulatus","Northern wolffish",10,-0.0798366785652065,-0.00798366785652065,"Decline",10,10,"46.711721,-56.383301"
"226",228,48.138699,-48.319336,0,"Marine","Actinopterygii","Anarhichas_minor","Spotted wolffish",15,0.347234400466778,0.0248024571761984,"Increase",14,4,"48.138699,-48.319336"
"227",229,48.138699,-48.319336,0,"Marine","Actinopterygii","Anarhichas_denticulatus","Northern wolffish",15,0.243496126310859,0.0173925804507757,"Increase",14,0,"48.138699,-48.319336"
"228",230,48.138699,-48.319336,1,"Marine","Actinopterygii","Anarhichas_minor","Spotted wolffish",12,-0.0623552542185404,-0.00566865947441277,"Decline",11,7,"48.138699,-48.319336"
"229",231,48.138699,-48.319336,0,"Marine","Actinopterygii","Anarhichas_denticulatus","Northern wolffish",11,-0.559666575553348,-0.0559666575553348,"Decline",10,10,"48.138699,-48.319336"
"230",232,48.138699,-48.319336,1,"Marine","Actinopterygii","Anarhichas_minor","Spotted wolffish",8,0.0772987094848733,0.0110426727835533,"Increase",7,0,"48.138699,-48.319336"
"231",233,48.138699,-48.319336,0,"Marine","Actinopterygii","Anarhichas_denticulatus","Northern wolffish",8,0.286107941497217,0.040872563071031,"Increase",7,2,"48.138699,-48.319336"
"232",234,68.362042,-133.728624,0,"Terrestrial","Mammalia","Myodes_rutilus","Northern red-backed vole",4,-0.164967858693777,-0.054989286231259,"Decline",3,1,"68.362042,-133.728624"
"233",235,69.019128,-134.683061,0,"Terrestrial","Mammalia","Myodes_rutilus","Northern red-backed vole",3,0.396748527864618,0.198374263932309,"Increase",2,1,"69.019128,-134.683061"
"234",236,49.861901,-119.744043,0,"Terrestrial","Mammalia","Mustela_erminea","Stoat / Short-tailed weasel / Ermine",4,0.177612432176214,0.059204144058738,"Increase",3,1,"49.861901,-119.744043"
"235",237,49.861901,-119.744043,0,"Terrestrial","Mammalia","Sorex_cinereus","Masked shrew",4,-0.419519334244978,-0.139839778081659,"Decline",3,2,"49.861901,-119.744043"
"236",238,49.861901,-119.744043,0,"Terrestrial","Mammalia","Phenacomys_intermedius","Western heather vole",5,-0.482322448405471,-0.120580612101368,"Decline",4,3,"49.861901,-119.744043"
"237",239,49.861901,-119.744043,0,"Terrestrial","Mammalia","Microtus_longicaudus","Long-tailed vole",4,-0.864807629026146,-0.288269209675382,"Decline",3,2,"49.861901,-119.744043"
"238",240,49.861901,-119.744043,0,"Terrestrial","Mammalia","Myodes_gapperi","Southern red-backed vole",5,-0.081446029347709,-0.0203615073369273,"Decline",4,3,"49.861901,-119.744043"
"239",241,49.566667,-119.666667,0,"Terrestrial","Mammalia","Sorex_vagrans","Vagrant shrew",7,0.301029995663981,0.0501716659439969,"Increase",6,2,"49.566667,-119.666667"
"240",242,51.135057,-115.614946,0,"Terrestrial","Mammalia","Ursus_arctos","Grizzly bear / Brown bear",2,-0.16385680263867,-0.0819284013193349,"Decline",2,2,"51.135057,-115.614946"
"241",243,51.166667,-115.566667,0,"Terrestrial","Mammalia","Puma_concolor","Mountain lion / Puma / Cougar",3,-0.221848749616356,-0.110924374808178,"Decline",2,1,"51.166667,-115.566667"
"242",244,50.833333,-119.833333,0,"Terrestrial","Mammalia","Tamias_amoenus","Yellow-pine chipmunk",5,0.477121254719662,0.159040418239887,"Increase",3,1,"50.833333,-119.833333"
"243",245,50.833333,-119.833333,0,"Terrestrial","Mammalia","Microtus_longicaudus","Long-tailed vole",2,0.0429282005418109,0.0429282005418109,"Increase",1,0,"50.833333,-119.833333"
"244",246,50.833333,-119.833333,0,"Terrestrial","Mammalia","Myodes_gapperi","Southern red-backed vole",5,-0.034762106259212,-0.008690526564803,"Decline",4,3,"50.833333,-119.833333"
"245",247,49.566667,-119.666667,0,"Terrestrial","Mammalia","Perognathus_parvus","Great Basin pocket mouse",4,0.243628523939598,0.081209507979866,"Increase",3,1,"49.566667,-119.666667"
"246",248,49.566667,-119.666667,0,"Terrestrial","Mammalia","Perognathus_parvus","Great Basin pocket mouse",4,0.0557704869837283,0.0185901623279094,"Increase",3,1,"49.566667,-119.666667"
"247",249,49.566667,-119.666667,0,"Terrestrial","Mammalia","Reithrodontomys_megalotis","Western harvest mouse",4,0.454667633120965,0.151555877706988,"Increase",3,1,"49.566667,-119.666667"
"248",250,49.566667,-119.666667,0,"Terrestrial","Mammalia","Reithrodontomys_megalotis","Western harvest mouse",4,0.152610163206159,0.050870054402053,"Increase",3,2,"49.566667,-119.666667"
"249",251,49.566667,-119.666667,0,"Terrestrial","Mammalia","Perognathus_parvus","Great Basin pocket mouse",4,-0.057088484030888,-0.0190294946769627,"Decline",3,2,"49.566667,-119.666667"
"250",252,43.683333,-79.633333,0,"Terrestrial","Mammalia","Zapus_hudsonius","Meadow jumping mouse",4,0.301029995663982,0.100343331887994,"Increase",3,1,"43.683333,-79.633333"
"251",253,46.237205,-63.902612,1,"Marine","Actinopterygii","Scophthalmus_aquosus","Windowpane flounder",3,1.05735280855195,0.528676404275976,"Increase",2,0,"46.237205,-63.902612"
"252",254,46.237205,-63.902612,1,"Marine","Actinopterygii","Tautogolabrus_adspersus","Cunner",2,0.26884531229258,0.13442265614629,"Increase",2,0,"46.237205,-63.902612"
"253",255,46.237205,-63.902612,1,"Marine","Actinopterygii","Tautogolabrus_adspersus","Cunner",6,0.193266431955298,0.0386532863910596,"Increase",5,3,"46.237205,-63.902612"
"254",256,46.237205,-63.902612,1,"Marine","Actinopterygii","Tautogolabrus_adspersus","Cunner",5,-0.607410709712064,-0.121482141942413,"Decline",5,2,"46.237205,-63.902612"
"255",257,45.200085,-75.23807,0,"Terrestrial","Mammalia","Erethizon_dorsata","Porcupine / North American porcupine",10,-0.250448225843152,-0.0278275806492391,"Decline",9,7,"45.200085,-75.23807"
"256",258,45.200085,-75.23807,0,"Terrestrial","Mammalia","Martes_pennanti","Fisher",10,0.633030355505699,0.0703367061672999,"Increase",9,0,"45.200085,-75.23807"
"257",259,68.585135,-136.193826,0,"Freshwater","Actinopterygii","Salvelinus_malma","Dolly varden",2,0.0514905386651736,0.0514905386651736,"Increase",1,0,"68.585135,-136.193826"
"258",260,60.883631,-115.045125,0,"Freshwater","Actinopterygii","Stenodus_leucichthys","Inconnu / Sheefish",16,-0.615381904719972,-0.0192306845224991,"Decline",32,18,"60.883631,-115.045125"
"259",261,42.705841,-81.963458,0,"Freshwater","Amphibia","Necturus_maculosus","Mudpuppy",2,-0.514909815609062,-0.514909815609062,"Decline",1,1,"42.705841,-81.963458"
"260",262,49.604473,-119.676599,0,"Terrestrial","Mammalia","Sylvilagus_nuttallii","Mountain cottontail",3,-0.204119982655925,-0.102059991327962,"Decline",2,1,"49.604473,-119.676599"
"261",263,49.566667,-119.666667,0,"Terrestrial","Mammalia","Microtus_montanus","Montane vole",7,0.986923479369781,0.16448724656163,"Increase",6,2,"49.566667,-119.666667"
"262",264,56.675847,-111.12555,0,"Freshwater","Actinopterygii","Percopsis_omiscomaycus","Trout-perch",6,0.882640714326908,0.0980711904807676,"Increase",9,3,"56.675847,-111.12555"
"263",265,56.675847,-111.12555,0,"Freshwater","Actinopterygii","Cottus_cognatus","Slimy sculpin",3,-0.468813431942804,-0.117203357985701,"Decline",4,1,"56.675847,-111.12555"
"264",266,57.15412,-111.627445,0,"Freshwater","Actinopterygii","Percopsis_omiscomaycus","Trout-perch",12,1.36107072130184,0.0907380480867891,"Increase",15,0,"57.15412,-111.627445"
"265",267,43.84,-58.93,0,"Marine","Mammalia","Delphinus_delphis","Short-beaked common dolphin",13,-0.342422680822208,-0.0148879426444438,"Decline",23,11,"43.84,-58.93"
"266",268,56.675847,-111.12555,0,"Freshwater","Actinopterygii","Prosopium_williamsoni","Mountain whitefish",5,0.239607727316037,0.026623080812893,"Increase",9,1,"56.675847,-111.12555"
"267",269,43.84,-58.93,0,"Marine","Mammalia","Lagenorhynchus_acutus","Atlantic white-sided dolphin",14,-0.8750612633917,-0.0416695839710333,"Decline",21,11,"43.84,-58.93"
"268",270,57.15412,-111.627445,0,"Freshwater","Actinopterygii","Prosopium_williamsoni","Mountain whitefish",5,-0.134955857365825,-0.0168694821707281,"Decline",8,6,"57.15412,-111.627445"
"269",271,43.48,-58.93,0,"Marine","Mammalia","Globicephala_melas","Long-finned pilot whale",17,0.916809325021926,0.0398612750009533,"Increase",23,0,"43.48,-58.93"
"270",272,56.675847,-111.12555,0,"Freshwater","Actinopterygii","Catostomus_catostomus","Longnose sucker",9,0.647558670573307,0.0719509633970341,"Increase",9,0,"56.675847,-111.12555"
"271",273,56.675847,-111.12555,0,"Freshwater","Actinopterygii","Couesius_plumbeus","Lake chub",6,-0.588397127025028,-0.0980661878375047,"Decline",6,4,"56.675847,-111.12555"
"272",274,43.84,-58.93,0,"Marine","Mammalia","Mesoplodon_bidens","Sowerby√¢??s beaked whale",8,0.845098040014255,0.0497116494126032,"Increase",17,5,"43.84,-58.93"
"273",275,57.15412,-111.627445,0,"Freshwater","Actinopterygii","Catostomus_catostomus","Longnose sucker",17,-0.35380257946311,-0.0141521031785244,"Decline",25,25,"57.15412,-111.627445"
"274",276,57.15412,-111.627445,0,"Freshwater","Actinopterygii","Couesius_plumbeus","Lake chub",7,0.269350423400814,0.0336688029251017,"Increase",8,3,"57.15412,-111.627445"
"275",277,56.675847,-111.12555,0,"Freshwater","Actinopterygii","Hiodon_alosoides","Goldeye",9,0.383626367313826,0.0426251519237584,"Increase",9,0,"56.675847,-111.12555"
"276",278,42.166667,-82.5,0,"Terrestrial","Reptilia","Storeria_dekayi","Northern brown snake / Brownsnake",21,0.469504399699634,0.0234752199849817,"Increase",20,0,"42.166667,-82.5"
"277",279,57.15412,-111.627445,0,"Freshwater","Actinopterygii","Hiodon_alosoides","Goldeye",18,0.58016867566996,0.0232067470267984,"Increase",25,11,"57.15412,-111.627445"
"278",280,41.703611,-82.661667,0,"Terrestrial","Reptilia","Nerodia_sipedon","Lake Erie water snake",2,-0.318365557996463,-0.318365557996463,"Decline",1,1,"41.703611,-82.661667"
"279",281,57.15412,-111.627445,0,"Freshwater","Actinopterygii","Platygobio_gracilis","Flathead chub",17,0.192432619268129,0.00769730477072515,"Increase",25,0,"57.15412,-111.627445"
"280",282,57.15412,-111.627445,0,"Freshwater","Actinopterygii","Notropis_atherinoides","Emerald shiner",8,-0.769661128748653,-0.0699691935226048,"Decline",11,6,"57.15412,-111.627445"
"281",283,56.675847,-111.12555,0,"Freshwater","Actinopterygii","Thymallus_arcticus","Arctic grayling",2,0.529085391086496,0.176361797028832,"Increase",3,0,"56.675847,-111.12555"
"282",284,43.84,-58.93,0,"Marine","Mammalia","Balaenoptera_musculus","Blue whale",8,0.778151250383644,0.0555822321702603,"Increase",14,0,"43.84,-58.93"
"283",285,42.166667,-82.5,0,"Freshwater","Reptilia","Sternotherus_odoratus","Common musk turtle / Eastern musk turtle",2,0.0969100130080563,0.00323033376693521,"Increase",30,0,"42.166667,-82.5"
"284",286,42.166667,-82.5,0,"Freshwater","Reptilia","Chrysemys_picta","Painted turtle",2,-0.127965191238488,-0.00426550637461626,"Decline",30,30,"42.166667,-82.5"
"285",287,57.15412,-111.627445,0,"Freshwater","Actinopterygii","Thymallus_arcticus","Arctic grayling",3,-0.0962661367123516,-0.00458410174820722,"Decline",21,12,"57.15412,-111.627445"
"286",288,45,-61,0,"Marine","Reptilia","Dermochelys_coriacea","Leatherback turtle",8,0.879709609524263,0.125672801360609,"Increase",7,1,"45,-61"
"287",289,45.133333,-80.116667,0,"Freshwater","Reptilia","Sternotherus_odoratus","Common musk turtle / Eastern musk turtle",4,0.494545146636403,0.164848382212134,"Increase",3,1,"45.133333,-80.116667"
"288",290,70.005567,-134.78714,0,"Marine","Mammalia","Balaena_mysticetus","Bowhead whale",3,-0.438134639327316,-0.219067319663658,"Decline",2,1,"70.005567,-134.78714"
"289",291,44.8325,-62.623787,0,"Marine","Mammalia","Halichoerus_grypus","Grey seal",51,1.27901550509037,0.0255803101018075,"Increase",50,14,"44.8325,-62.623787"
"290",292,43.934444,-59.931111,0,"Marine","Mammalia","Halichoerus_grypus","Grey seal",50,2.36975264736287,0.0483622989257729,"Increase",49,0,"43.934444,-59.931111"
"291",293,69.8,-122.666667,0,"Terrestrial","Mammalia","Microtus_oeconomus","Root vole",3,-0.147801619567804,-0.073900809783902,"Decline",2,1,"69.8,-122.666667"
"292",294,49.321989,-122.798417,0,"Terrestrial","Mammalia","Tamiasciurus_douglasii","Douglas's squirrel",3,-0.476182818986925,-0.238091409493462,"Decline",2,2,"49.321989,-122.798417"
"293",295,49.321989,-122.798417,0,"Terrestrial","Mammalia","Glaucomys_sabrinus","Northern flying squirrel",3,-0.266617844687125,-0.133308922343562,"Decline",2,2,"49.321989,-122.798417"
"294",296,46.235,-63.126667,0,"Freshwater","Amphibia","Lithobates_sylvaticus","Wood frog",2,0.57139117156151,0.57139117156151,"Increase",1,0,"46.235,-63.126667"
"295",297,49.266667,-122.566667,0,"Freshwater","Amphibia","Anaxyrus_boreas","Western toad / Boreal toad",2,-0.993751050722998,-0.496875525361499,"Decline",2,2,"49.266667,-122.566667"
"296",298,49.266667,-122.566667,0,"Freshwater","Amphibia","Ascaphus_truei","American discoglossoid toad / American bell toad",3,-0.516629796003336,-0.258314898001668,"Decline",2,2,"49.266667,-122.566667"
"297",299,49.266667,-122.566667,0,"Freshwater","Amphibia","Taricha_granulosa","Roughskin newt",3,0.394147019654898,0.197073509827449,"Increase",2,1,"49.266667,-122.566667"
"298",300,49.266667,-122.566667,0,"Terrestrial","Amphibia","Plethodon_vehiculum","Western red-backed salamander",3,-0.019210258553054,-0.00960512927652701,"Stable",2,1,"49.266667,-122.566667"
"299",301,49.266667,-122.566667,0,"Terrestrial","Amphibia","Ensatina_eschscholtzii","Ensatina",3,-0.692721055059017,-0.346360527529509,"Decline",2,2,"49.266667,-122.566667"
"300",302,49.266667,-122.566667,0,"Freshwater","Amphibia","Ambystoma_macrodactylum","Long-toed salamander",2,0.447158031342219,0.447158031342219,"Increase",1,0,"49.266667,-122.566667"
"301",303,49.666667,-119.883333,0,"Terrestrial","Mammalia","Sorex_monticolus","Dusky shrew / Montane shrew",10,-0.21679661707413,-0.0240885130082366,"Decline",9,9,"49.666667,-119.883333"
"302",304,49.666667,-119.883333,0,"Terrestrial","Mammalia","Tamias_amoenus","Yellow-pine chipmunk",10,0.0689499025520378,0.00766110028355975,"Increase",9,5,"49.666667,-119.883333"
"303",305,45.016389,-73.795833,0,"Freshwater","Amphibia","Eurycea_bislineata","Northern two-lined salamander",2,-0.222443266453761,-0.222443266453761,"Decline",1,1,"45.016389,-73.795833"
"304",306,43.083333,-50,0,"Marine","Elasmobranchii","Amblyraja_radiata","Thorny skate / Starry ray",15,-0.435699013878764,-0.0311213581341974,"Decline",14,9,"43.083333,-50"
"305",307,45.016389,-73.795833,0,"Freshwater","Amphibia","Desmognathus_fuscus","Dusky salamander",2,0.173000182078539,0.173000182078539,"Increase",1,0,"45.016389,-73.795833"
"306",308,45.016389,-73.795833,0,"Freshwater","Amphibia","Gyrinophilus_porphyriticus","Spring salamander",2,0.199572354905204,0.199572354905204,"Increase",1,0,"45.016389,-73.795833"
"307",309,45.016389,-73.795833,0,"Freshwater","Amphibia","Desmognathus_ochrophaeus","Mountain dusky salamander",2,0.195686815119062,0.195686815119062,"Increase",1,0,"45.016389,-73.795833"
"308",310,50.066667,-119.566667,0,"Terrestrial","Mammalia","Sorex_monticolus","Dusky shrew / Montane shrew",10,0.122789257213225,0.0136432508014695,"Increase",9,3,"50.066667,-119.566667"
"309",311,44.42804,-66.089296,0,"Marine","Elasmobranchii","Amblyraja_radiata","Thorny skate / Starry ray",8,0.16478983490584,0.0235414049865486,"Increase",7,0,"44.42804,-66.089296"
"310",312,49.699167,-123.156111,0,"Freshwater","Amphibia","Ascaphus_truei","American discoglossoid toad / American bell toad",3,-0.054884295410535,-0.0274421477052675,"Decline",2,1,"49.699167,-123.156111"
"311",313,50.066667,-119.566667,0,"Terrestrial","Mammalia","Tamias_amoenus","Yellow-pine chipmunk",10,0.383511437671701,0.0426123819635223,"Increase",9,4,"50.066667,-119.566667"
"312",314,46.06667,-57,0,"Marine","Elasmobranchii","Amblyraja_radiata","Thorny skate / Starry ray",16,-0.0083065558785692,-0.000519159742410575,"Stable",16,9,"46.06667,-57"
"313",315,46.06667,-57,0,"Marine","Elasmobranchii","Amblyraja_radiata","Thorny skate / Starry ray",24,0.126067237954066,0.00548118425887242,"Increase",23,3,"46.06667,-57"
"314",316,51.454007,-128.235855,0,"Marine","Mammalia","Phoca_vitulina","Harbour seal",2,-0.232976722678399,-0.232976722678399,"Decline",1,1,"51.454007,-128.235855"
"315",317,51.454007,-128.235855,0,"Marine","Mammalia","Balaenoptera_acutorostrata","Minke whale",2,-0.1249387366083,-0.1249387366083,"Decline",1,1,"51.454007,-128.235855"
"316",318,51.454007,-128.235855,0,"Marine","Mammalia","Orcinus_orca","Killer whale / Orca",2,0.197966828189786,0.197966828189786,"Increase",1,0,"51.454007,-128.235855"
"317",319,51.454007,-128.235855,0,"Marine","Mammalia","Balaenoptera_physalus","Fin whale",2,0.556910330792193,0.556910330792193,"Increase",1,0,"51.454007,-128.235855"
"318",320,51.454007,-128.235855,0,"Marine","Mammalia","Megaptera_novaeangliae","Humpback whale",2,0.049728467512969,0.049728467512969,"Increase",1,0,"51.454007,-128.235855"
"319",321,51.454007,-128.235855,0,"Marine","Mammalia","Lagenorhynchus_obliquidens","Pacific white-sided dolphin",2,-0.0519670066441298,-0.0519670066441298,"Decline",1,1,"51.454007,-128.235855"
"320",322,51.454007,-128.235855,0,"Marine","Mammalia","Phocoenoides_dalli","Dall's porpoise",2,-0.141085372558857,-0.141085372558857,"Decline",1,1,"51.454007,-128.235855"
"321",323,51.454007,-128.235855,0,"Marine","Mammalia","Phocoena_phocoena","Harbour porpoise",2,0.257691979226719,0.257691979226719,"Increase",1,0,"51.454007,-128.235855"
"322",324,61.249167,-138.670556,0,"Terrestrial","Mammalia","Gulo_gulo","Wolverine",8,0.284719848748189,0.0406742641068841,"Increase",7,0,"61.249167,-138.670556"
"323",325,43.84,-58.93,0,"Marine","Mammalia","Megaptera_novaeangliae","Humpback whale",11,-0.698970004336019,-0.0317713638334554,"Decline",22,8,"43.84,-58.93"
"324",326,59.28607579,-59.85363866,0,"Marine","Elasmobranchii","Amblyraja_radiata","Thorny skate",6,0.351089487481439,0.0270068836524184,"Increase",13,7,"59.28607579,-59.85363866"
"325",327,56.47753448,-56.76630906,0,"Marine","Elasmobranchii","Amblyraja_radiata","Thorny skate",10,0.409832670931321,0.0315255900716401,"Increase",13,5,"56.47753448,-56.76630906"
"326",328,53.91049179,-53.8645951,0,"Marine","Elasmobranchii","Amblyraja_radiata","Thorny skate",24,-0.0216545415605074,-0.000902272565021141,"Stable",24,12,"53.91049179,-53.8645951"
"327",329,49.25,-84.499722,0,"Freshwater","Amphibia","Lithobates_sylvaticus","Wood frog",11,-0.106612995502182,-0.0106612995502182,"Decline",10,7,"49.25,-84.499722"
"328",330,49.25,-84.499722,0,"Freshwater","Amphibia","Lithobates_sylvaticus","Wood frog",9,-0.143590552761911,-0.0159545058624345,"Decline",9,4,"49.25,-84.499722"
"329",331,49.25,-84.499722,0,"Freshwater","Amphibia","Lithobates_sylvaticus","Wood frog",12,-0.0494098994332187,-0.00449180903938352,"Decline",11,5,"49.25,-84.499722"
"330",332,50.69532218,-52.12112237,0,"Marine","Elasmobranchii","Amblyraja_radiata","Thorny skate",23,0.117358395936972,0.0048899331640405,"Increase",24,12,"50.69532218,-52.12112237"
"331",333,45.11471131,-49.95688624,0,"Marine","Elasmobranchii","Amblyraja_radiata","Thorny skate",25,0.0539597798237401,0.00224832415932251,"Increase",24,12,"45.11471131,-49.95688624"
"332",334,50.078295,-63.877945,0,"Marine","Mammalia","Balaenoptera_musculus","Blue whale",17,-0.928220128920964,-0.0488536909958402,"Decline",19,19,"50.078295,-63.877945"
"333",335,50.078295,-63.877945,0,"Marine","Mammalia","Megaptera_novaeangliae","Humpback whale",22,0.912710568521193,0.0434624080248187,"Increase",21,7,"50.078295,-63.877945"
"334",336,43.84,-58.93,0,"Marine","Mammalia","Balaenoptera_physalus","Fin whale",11,-0.69897000433602,-0.0303900001885226,"Decline",23,12,"43.84,-58.93"
"335",337,49.25,-84.499722,0,"Freshwater","Amphibia","Hyla_versicolor","Gray treefrog / Eastern gray treefrog",11,0.047270195349463,0.0047270195349463,"Increase",10,0,"49.25,-84.499722"
"336",338,49.25,-84.499722,0,"Freshwater","Amphibia","Hyla_versicolor","Gray treefrog / Eastern gray treefrog",9,0.0391726100340831,0.00435251222600923,"Increase",9,3,"49.25,-84.499722"
"337",339,49.25,-84.499722,0,"Freshwater","Amphibia","Hyla_versicolor","Gray treefrog / Eastern gray treefrog",12,-0.0932706821292911,-0.00847915292084464,"Decline",11,6,"49.25,-84.499722"
"338",340,44.68377883,-52.78238297,0,"Marine","Elasmobranchii","Amblyraja_radiata","Thorny skate",24,0.262670514610627,0.0109446047754428,"Increase",24,0,"44.68377883,-52.78238297"
"339",341,47.36424828,-58.63551171,0,"Marine","Elasmobranchii","Amblyraja_radiata","Thorny skate",21,0.646779246911429,0.0293990566777922,"Increase",22,3,"47.36424828,-58.63551171"
"340",342,46.03458383,-55.99580924,0,"Marine","Elasmobranchii","Amblyraja_radiata","Thorny skate",24,-0.014860105671225,-0.000619171069634374,"Stable",24,13,"46.03458383,-55.99580924"
"341",343,49.69673981,-58.45213759,0,"Marine","Elasmobranchii","Amblyraja_radiata","Thorny skate",24,0.532995917833384,0.0222081632430576,"Increase",24,0,"49.69673981,-58.45213759"
"342",344,49.65203712,-62.06790167,0,"Marine","Elasmobranchii","Amblyraja_radiata","Thorny skate",22,0.138863382600715,0.00631197193639615,"Increase",22,9,"49.65203712,-62.06790167"
"343",345,47.63768534,-63.7280474,1,"Marine","Elasmobranchii","Amblyraja_radiata","Thorny skate",25,0.345816532918164,0.0144090222049235,"Increase",24,0,"47.63768534,-63.7280474"
"344",346,46.44191714,-59.34894137,0,"Marine","Elasmobranchii","Amblyraja_radiata","Thorny skate",25,-0.173093525495096,-0.00721223022896231,"Decline",24,13,"46.44191714,-59.34894137"
"345",347,43.43761069,-57.69088789,0,"Marine","Elasmobranchii","Amblyraja_radiata","Thorny skate",25,-0.0715541922230327,-0.0029814246759597,"Decline",24,24,"43.43761069,-57.69088789"
"346",348,42.86687747,-61.18130929,0,"Marine","Elasmobranchii","Amblyraja_radiata","Thorny skate",25,-0.552454319151335,-0.0230189299646389,"Decline",24,18,"42.86687747,-61.18130929"
"347",349,42.72956311,-65.0988351,0,"Marine","Elasmobranchii","Amblyraja_radiata","Thorny skate",25,-0.21338264631476,-0.00889094359644835,"Decline",24,18,"42.72956311,-65.0988351"
"348",350,44.26602876,-67.06471654,0,"Marine","Elasmobranchii","Amblyraja_radiata","Thorny skate",19,0.68630299475544,0.0298392606415409,"Increase",23,12,"44.26602876,-67.06471654"
"349",351,45.616667,-65.031944,0,"Freshwater","Amphibia","Lithobates_palustris","Pickerel frog",2,-0.0871501757189003,-0.0871501757189003,"Decline",1,1,"45.616667,-65.031944"
"350",352,43.011112,-79.317526,0,"Terrestrial","Reptilia","Clemmys_guttata","Spotted turtle",11,0.397935856821319,0.0397935856821319,"Increase",10,1,"43.011112,-79.317526"
"351",353,41.62750249,-66.21484739,0,"Marine","Elasmobranchii","Amblyraja_radiata","Thorny skate",11,-0.324278884852889,-0.0249445296040684,"Decline",13,6,"41.62750249,-66.21484739"
"352",354,47,-63,0,"Marine","Elasmobranchii","Amblyraja_radiata","Thorny skate",46,-0.953320995994644,-0.0211849110221032,"Decline",45,36,"47,-63"
"353",355,44.19795,-61.56738,1,"Marine","Elasmobranchii","Amblyraja_radiata","Thorny Skate",12,0.0082781314365556,0.000752557403323236,"Stable",11,5,"44.19795,-61.56738"
"354",356,51.66528,-128.21167,0,"Marine","Mammalia","Enhydra_lutris","Sea otter",15,1.30947807690363,0.0569338294305926,"Increase",23,5,"51.66528,-128.21167"
"355",357,49.39333,-126.75889,0,"Marine","Mammalia","Enhydra_lutris","Sea otter",20,1.90401962234207,0.0528894339539463,"Increase",36,4,"49.39333,-126.75889"
"356",358,44.19795,-61.56738,1,"Marine","Elasmobranchii","Amblyraja_radiata","Thorny Skate",13,-0.487914212294986,-0.0406595176912488,"Decline",12,12,"44.19795,-61.56738"
"357",359,44.19795,-61.56738,0,"Marine","Elasmobranchii","Amblyraja_radiata","Thorny Skate",22,-0.766293852291348,-0.0364901834424452,"Decline",21,13,"44.19795,-61.56738"
"358",360,43.2532,-65.50048,1,"Marine","Elasmobranchii","Amblyraja_radiata","Thorny Skate",12,0.129196550287479,0.0117451409352254,"Increase",11,5,"43.2532,-65.50048"
"359",361,43.2532,-65.50048,1,"Marine","Elasmobranchii","Amblyraja_radiata","Thorny Skate",13,-0.683021540117341,-0.0569184616764451,"Decline",12,12,"43.2532,-65.50048"
"360",362,43.2532,-65.50048,0,"Marine","Elasmobranchii","Amblyraja_radiata","Thorny Skate",22,-1.02738917612826,-0.0489232941013457,"Decline",21,21,"43.2532,-65.50048"
"361",363,41.721127,-65.910905,0,"Marine","Fish","Amblyraja_radiata","Thorny Skate",3,-0.051152522447381,-0.0255762612236905,"Decline",2,1,"41.721127,-65.910905"
"362",364,42.72956311,-65.0988351,1,"Marine","Fish","Amblyraja_radiata","Thorny Skate",3,-0.731693849144642,-0.365846924572321,"Decline",2,1,"42.72956311,-65.0988351"
"363",365,43.43761069,-57.69088789,1,"Marine","Fish","Amblyraja_radiata","Thorny Skate",3,0.225162585395502,0.112581292697751,"Increase",2,0,"43.43761069,-57.69088789"
"364",366,49.266667,-122.566667,0,"Freshwater","Amphibia","Ambystoma_gracile","Northwestern salamander",3,0.99919500536377,0.499597502681885,"Increase",2,0,"49.266667,-122.566667"
"365",367,47.78333,-69.665,0,"Freshwater","Actinopterygii","Acipenser_oxyrinchus","Atlantic sturgeon",7,-0.516992766757354,-0.0861654611262257,"Decline",6,4,"47.78333,-69.665"
"366",368,47.26306,-70.42472,0,"Freshwater","Actinopterygii","Acipenser_oxyrinchus","Atlantic sturgeon",7,-0.164897482648877,-0.0274829137748128,"Decline",6,4,"47.26306,-70.42472"
"367",369,48.782655,-125.173875,0,"Freshwater","Herps","Ambystoma_gracile","Northwestern salamander",10,0.538971178567367,0.0598856865074852,"Increase",9,0,"48.782655,-125.173875"
"368",370,67.23333,-100.25,1,"Terrestrial","Mammalia","Myodes_rutilus","Northern red-backed vole",6,0.0579919469776873,0.0115983893955375,"Increase",5,2,"67.23333,-100.25"
"369",371,45.612,-65.038,0,"Freshwater","Amphibia","Ambystoma_maculatum","Spotted salamander",7,-0.0287424369603837,-0.00479040616006395,"Decline",6,3,"45.612,-65.038"
"370",372,45.612,-65.038,0,"Freshwater","Amphibia","Ambystoma_maculatum","Spotted salamander",7,0.449425196384174,0.0749041993973623,"Increase",6,3,"45.612,-65.038"
"371",373,45.612,-65.038,0,"Freshwater","Amphibia","Ambystoma_maculatum","Spotted salamander",6,0.1249387366083,0.0249877473216599,"Increase",5,3,"45.612,-65.038"
"372",374,52.054271,-52.757812,0,"Marine","Actinopterygii","Anarhichas_lupus","Atlantic wolffish",15,0.244993320998029,0.0174995229284306,"Increase",14,6,"52.054271,-52.757812"
"373",375,75.37972,-125.73556,0,"Marine","Mammalia","Ursus_maritimus","Polar bear",20,0.449564591424546,0.0136231694371074,"Increase",33,12,"75.37972,-125.73556"
"374",376,56.42278,-83.6375,0,"Marine","Mammalia","Ursus_maritimus","Polar bear",5,0.0658757792680874,0.00329378896340437,"Increase",20,18,"56.42278,-83.6375"
"375",377,63.16667,-88.5,0,"Marine","Mammalia","Ursus_maritimus","Polar bear",18,-0.102109487576633,-0.00600644044568431,"Decline",17,17,"63.16667,-88.5"
"376",378,52.054271,-52.757812,1,"Marine","Actinopterygii","Anarhichas_lupus","Atlantic wolffish",18,-1.50873064123473,-0.0887488612491016,"Decline",17,17,"52.054271,-52.757812"
"377",379,41,-58,0,"Marine","Elasmobranchii","Isurus_oxyrinchus","Shortfin mako",33,-0.290603729020527,-0.00908136653189147,"Decline",32,32,"41,-58"
"378",380,45,-58,0,"Marine","Elasmobranchii","Lamna_nasus","Porbeagle shark",41,-0.941734812731846,-0.0235433703182961,"Decline",40,22,"45,-58"
"379",381,50.17389,-95.62111,0,"Freshwater","Actinopterygii","Acipenser_fulvescens","Lake sturgeon",16,-0.274146211168428,-0.0182764140778952,"Decline",15,13,"50.17389,-95.62111"
"380",382,45,-65.8,1,"Marine","Elasmobranchii","Cetorhinus_maximus","Basking shark",12,-0.647251275211945,-0.0588410250192677,"Decline",11,7,"45,-65.8"
"381",383,43.91667,-60,0,"Marine","Mammalia","Phoca_vitulina","Harbour seal",8,-0.807811132053274,-0.115401590293325,"Decline",7,7,"43.91667,-60"
"382",384,46.711721,-56.383301,0,"Marine","Actinopterygii","Anarhichas_lupus","Atlantic wolffish",14,0.273090256009101,0.0195064468577929,"Increase",14,0,"46.711721,-56.383301"
"383",385,53.53333,-114,0,"Terrestrial","Reptilia","Thamnophis_sirtalis","Common garter snake",2,0.058308372843709,0.058308372843709,"Increase",1,0,"53.53333,-114"
"384",386,60.75,-139.5,0,"Terrestrial","Mammalia","Spermophilus_parryii","Arctic ground squirrel",16,-0.628717680495896,-0.0419145120330597,"Decline",15,7,"60.75,-139.5"
"385",387,46.711721,-56.383301,1,"Marine","Actinopterygii","Anarhichas_lupus","Atlantic wolffish",12,-0.450175079917093,-0.0409250072651903,"Decline",11,8,"46.711721,-56.383301"
"386",388,46.711721,-56.383301,1,"Marine","Actinopterygii","Anarhichas_lupus","Atlantic wolffish",11,-0.519203480049858,-0.0519203480049858,"Decline",10,10,"46.711721,-56.383301"
"387",389,48.138699,-48.319336,0,"Marine","Actinopterygii","Anarhichas_lupus","Atlantic wolffish",15,0.189871069420367,0.013562219244312,"Increase",14,6,"48.138699,-48.319336"
"388",390,48.46667,-123.53333,0,"Terrestrial","Amphibia","Plethodon_vehiculum","Western red-backed salamander",2,-0.39175463174118,-0.39175463174118,"Decline",1,1,"48.46667,-123.53333"
"389",391,48.138699,-48.319336,1,"Marine","Actinopterygii","Anarhichas_lupus","Atlantic wolffish",12,-0.28976253655579,-0.0263420487777991,"Decline",11,7,"48.138699,-48.319336"
"390",392,44.36667,-78.28333,0,"Terrestrial","Amphibia","Hyla_versicolor","Gray treefrog / Eastern gray treefrog",6,0.413928114056168,0.0827856228112336,"Increase",5,2,"44.36667,-78.28333"
"391",393,48.138699,-48.319336,1,"Marine","Actinopterygii","Anarhichas_lupus","Atlantic wolffish",8,-0.097205546739931,-0.013886506677133,"Decline",7,3,"48.138699,-48.319336"
"392",394,41.90833,-61.36333,1,"Marine","Actinopterygii","Anarhichas_lupus","Atlantic wolffish",31,-0.695037401196638,-0.0231679133732213,"Decline",30,17,"41.90833,-61.36333"
"393",395,59.28607579,-59.85363866,0,"Marine","Actinopterygii","Anarhichas_lupus","Atlantic wolffish",6,-1.73926310807826,-0.133789469852174,"Decline",13,13,"59.28607579,-59.85363866"
"394",396,56.47753448,-56.76630906,0,"Marine","Actinopterygii","Anarhichas_lupus","Atlantic wolffish",9,-1.52805925714715,-0.109147089796225,"Decline",14,11,"56.47753448,-56.76630906"
"395",397,53.91049179,-53.8645951,0,"Marine","Actinopterygii","Anarhichas_lupus","Atlantic wolffish",24,-1.30651188996897,-0.0544379954153736,"Decline",24,18,"53.91049179,-53.8645951"
"396",398,50.69532218,-52.12112237,0,"Marine","Actinopterygii","Anarhichas_lupus","Atlantic wolffish",23,-1.18023049161162,-0.0491762704838175,"Decline",24,19,"50.69532218,-52.12112237"
"397",399,45.11471131,-49.95688624,0,"Marine","Actinopterygii","Anarhichas_lupus","Atlantic wolffish",24,0.822621001429622,0.0342758750595676,"Increase",24,7,"45.11471131,-49.95688624"
"398",400,44.68377883,-52.78238297,0,"Marine","Actinopterygii","Anarhichas_lupus","Atlantic wolffish",22,-0.0528782213218479,-0.00220325922174366,"Decline",24,24,"44.68377883,-52.78238297"
"399",401,47.36424828,-58.63551171,0,"Marine","Actinopterygii","Anarhichas_lupus","Atlantic wolffish",23,-0.997910747362717,-0.043387423798379,"Decline",23,15,"47.36424828,-58.63551171"
"400",402,46.03458383,-55.99580924,0,"Marine","Actinopterygii","Anarhichas_lupus","Atlantic wolffish",24,-0.892331651851977,-0.0371804854938324,"Decline",24,20,"46.03458383,-55.99580924"
"401",403,49.69673981,-58.45213759,0,"Marine","Actinopterygii","Anarhichas_lupus","Atlantic wolffish",23,-0.749186493663182,-0.0325733258114427,"Decline",23,13,"49.69673981,-58.45213759"
"402",404,60,-70,1,"Marine","Actinopterygii","Mallotus_villosus","Capelin",26,0.126681919980403,0.00506727679921611,"Increase",25,15,"60,-70"
"403",405,45.57,-73.19,0,"Terrestrial","Mammalia","Blarina_brevicauda","Northern short-tailed shrew",8,-0.496451903712225,-0.0620564879640281,"Decline",8,5,"45.57,-73.19"
"404",406,49.65203712,-62.06790167,0,"Marine","Actinopterygii","Anarhichas_lupus","Atlantic wolffish",22,-1.47283339966897,-0.0669469727122259,"Decline",22,14,"49.65203712,-62.06790167"
"405",407,47.63768534,-63.7280474,1,"Marine","Actinopterygii","Anarhichas_lupus","Atlantic wolffish",23,0.410162217242178,0.0178331398800947,"Increase",23,9,"47.63768534,-63.7280474"
"406",408,46.44191714,-59.34894137,1,"Marine","Actinopterygii","Anarhichas_lupus","Atlantic wolffish",25,0.411459079763919,0.0171441283234966,"Increase",24,5,"46.44191714,-59.34894137"
"407",409,43.43761069,-57.69088789,1,"Marine","Actinopterygii","Anarhichas_lupus","Atlantic wolffish",25,-0.13355532447949,-0.00556480518664542,"Decline",24,8,"43.43761069,-57.69088789"
"408",410,42.86687747,-61.18130929,1,"Marine","Actinopterygii","Anarhichas_lupus","Atlantic wolffish",25,-0.844829744731328,-0.0352012393638053,"Decline",24,21,"42.86687747,-61.18130929"
"409",411,42.72956311,-65.0988351,1,"Marine","Actinopterygii","Anarhichas_lupus","Atlantic wolffish",25,0.0966032278161277,0.00402513449233865,"Increase",24,11,"42.72956311,-65.0988351"
"410",412,44.26602876,-67.06471654,0,"Marine","Actinopterygii","Anarhichas_lupus","Atlantic wolffish",9,0.170696227168976,0.00812839176995122,"Increase",21,7,"44.26602876,-67.06471654"
"411",413,41.62750249,-66.21484739,0,"Marine","Actinopterygii","Anarhichas_lupus","Atlantic wolffish",10,0.00235988518430064,0.000181529629561588,"Stable",13,9,"41.62750249,-66.21484739"
"412",414,47,-63,0,"Marine","Actinopterygii","Anarhichas_lupus","Atlantic wolffish",44,-0.354708386493944,-0.00788240858875431,"Decline",45,29,"47,-63"
"413",415,44.19795,-61.56738,0,"Marine","Actinopterygii","Anarhichas_lupus","Striped Atlantic Wolffish",12,-0.00450995538274582,-0.000409995943885984,"Stable",11,5,"44.19795,-61.56738"
"414",416,44.19795,-61.56738,0,"Marine","Actinopterygii","Anarhichas_lupus","Striped Atlantic Wolffish",13,-0.36279110451033,-0.0302325920425275,"Decline",12,10,"44.19795,-61.56738"
"415",417,44.19795,-61.56738,0,"Marine","Actinopterygii","Anarhichas_lupus","Striped Atlantic Wolffish",22,-0.885664576885706,-0.0421745036612241,"Decline",21,21,"44.19795,-61.56738"
"416",418,43.2532,-65.50048,0,"Marine","Actinopterygii","Anarhichas_lupus","Striped Atlantic Wolffish",12,0.287097557190439,0.0260997779264035,"Increase",11,0,"43.2532,-65.50048"
"417",419,43.16667,-65.08333,0,"Marine","Mammalia","Eubalaena_glacialis","North Atlantic right whale",3,0.301029995663981,0.301029995663981,"Increase",1,0,"43.16667,-65.08333"
"418",420,45,-66,0,"Marine","Mammalia","Eubalaena_glacialis","North Atlantic right whale",3,-1.01703333929878,-0.50851666964939,"Decline",2,2,"45,-66"
"419",421,44,-59,0,"Marine","Mammalia","Hyperoodon_ampullatus","Northern bottlenose whale",9,0.362548033583197,0.0362548033583197,"Increase",10,2,"44,-59"
"420",422,43.2532,-65.50048,0,"Marine","Actinopterygii","Anarhichas_lupus","Striped Atlantic Wolffish",13,-0.534183510563793,-0.0445152925469827,"Decline",12,12,"43.2532,-65.50048"
"421",423,43.2532,-65.50048,0,"Marine","Actinopterygii","Anarhichas_lupus","Striped Atlantic Wolffish",22,-1.7535080118761,-0.0835003815179097,"Decline",21,21,"43.2532,-65.50048"
"422",424,49.75,-53.183333,0,"Marine","Mammalia","Balaenoptera_acutorostrata","Minke whale",3,-0.301029995663982,-0.100343331887994,"Decline",3,2,"49.75,-53.183333"
"423",425,49.75,-53.183333,0,"Marine","Mammalia","Megaptera_novaeangliae","Humpback whale",3,-0.8750612633917,-0.291687087797233,"Decline",3,2,"49.75,-53.183333"
"424",426,42.72956311,-65.0988351,1,"Marine","Fish","Anarhichas_lupus","Atlantic wolffish",3,0.655138434811382,0.327569217405691,"Increase",2,1,"42.72956311,-65.0988351"
"425",427,45.419,-75.517,0,"Freshwater","Reptilia","Clemmys_guttata","Spotted turtle",2,-0.110215479787594,-0.00612308221042186,"Decline",18,18,"45.419,-75.517"
"426",428,45.595278,-78.523333,0,"Terrestrial","Mammalia","Blarina_brevicauda","Northern short-tailed shrew",39,1.50040354329544,0.0348931056580335,"Increase",43,14,"45.595278,-78.523333"
"427",429,45.595278,-78.523333,0,"Terrestrial","Mammalia","Tamias_striatus","Eastern chipmunk",43,1.43824428096599,0.0334475414178138,"Increase",43,11,"45.595278,-78.523333"
"428",430,45.595278,-78.523333,0,"Terrestrial","Mammalia","Napaeozapus_insignis","Woodland jumping mouse",36,0.916856865915952,0.0213222526957198,"Increase",43,18,"45.595278,-78.523333"
"429",431,45.595278,-78.523333,0,"Terrestrial","Mammalia","Sorex_cinereus","Masked shrew",35,0.0467196701237596,0.0010865039563665,"Increase",43,0,"45.595278,-78.523333"
"430",432,42.86687747,-61.18130929,1,"Marine","Fish","Anarhichas_lupus","Atlantic wolffish",3,-0.225114137044124,-0.112557068522062,"Decline",2,1,"42.86687747,-61.18130929"
"431",433,60.108611,-113.6425,0,"Freshwater","Aves","Anas_acuta","Common pintail / Northern pintail",47,-0.263262964589831,-0.0057231079258659,"Decline",46,27,"60.108611,-113.6425"
"432",434,53.864883,-105.767477,1,"Freshwater","Birds","Anas_acuta","Northern pintail",10,-0.0407263350732805,-0.00452514834147561,"Decline",9,5,"53.864883,-105.767477"
"433",435,55.11667,-105,0,"Freshwater","Aves","Anas_crecca","Common teal / Green-winged teal",47,0.352921710555337,0.00767221109902906,"Increase",46,0,"55.11667,-105"
"434",436,53.864883,-105.767477,1,"Freshwater","Birds","Anas_crecca","Green-winger teal",10,0.163730822360529,0.0181923135956144,"Increase",9,1,"53.864883,-105.767477"
"435",437,60.108611,-113.6425,0,"Freshwater","Aves","Anas_platyrhynchos","Mallard / Common mallard",47,0.117975952025979,0.00256469460926042,"Increase",46,25,"60.108611,-113.6425"
"436",438,53.864883,-105.767477,1,"Freshwater","Birds","Anas_platyrhynchos","Mallard",10,0.190035236274059,0.0211150262526732,"Increase",9,0,"53.864883,-105.767477"
"437",439,46.235,-63.126667,0,"Terrestrial","Amphibia","Anaxyrus_americanus","American toad",2,-0.134698573897456,-0.134698573897456,"Decline",1,1,"46.235,-63.126667"
"438",440,49.25,-84.499722,0,"Freshwater","Amphibia","Anaxyrus_americanus","American toad",11,0.018752097971235,0.0018752097971235,"Stable",10,2,"49.25,-84.499722"
"439",441,49.25,-84.499722,0,"Freshwater","Amphibia","Anaxyrus_americanus","American toad",9,-0.261855784252018,-0.0290950871391131,"Decline",9,3,"49.25,-84.499722"
"440",442,49.25,-84.499722,0,"Freshwater","Amphibia","Anaxyrus_americanus","American toad",12,-0.113264162077391,-0.0102967420070356,"Decline",11,11,"49.25,-84.499722"
"441",443,41.96694,-82.53278,0,"Freshwater","Herps","Anaxyrus_americanus","American toad",12,0.1249387366083,0.00832924910721999,"Increase",15,7,"41.96694,-82.53278"
"442",444,41.96694,-82.53278,0,"Freshwater","Herps","Anaxyrus_americanus","American toad",4,0,0,"Stable",3,1,"41.96694,-82.53278"
"443",445,57.75083,-110.25861,0,"Freshwater","Amphibia","Anaxyrus_hemiophrys","Canadian toad",2,-0.202026993150081,-0.202026993150081,"Decline",1,1,"57.75083,-110.25861"
"444",446,41.96694,-82.53278,0,"Freshwater","Herps","Anaxyrus_americanus","American toad",7,0.221848749616357,0.0147899166410904,"Increase",15,5,"41.96694,-82.53278"
"445",447,55.51194,-110.59333,0,"Freshwater","Mammalia","Lontra_canadensis","North American river otter",2,-0.142667503568731,-0.142667503568731,"Decline",1,1,"55.51194,-110.59333"
"446",448,45.595278,-78.523333,0,"Terrestrial","Mammalia","Myodes_gapperi","Southern red-backed vole",43,0.671435851277867,0.0156147872390202,"Increase",43,18,"45.595278,-78.523333"
"447",449,41.96694,-82.53278,0,"Freshwater","Herps","Anaxyrus_americanus","American toad",4,0,0,"Stable",14,1,"41.96694,-82.53278"
"448",450,41.96694,-82.53278,0,"Freshwater","Herps","Anaxyrus_americanus","American toad",4,0.602059991327962,0.0401373327551975,"Increase",15,0,"41.96694,-82.53278"
"449",451,58.45,-111.06667,0,"Terrestrial","Mammalia","Mephitis_mephitis","Skunk / Striped skunk",10,0.659526433772874,0.0659526433772874,"Increase",10,5,"58.45,-111.06667"
"450",452,58.45,-111.06667,0,"Terrestrial","Mammalia","Erethizon_dorsata","Porcupine / North American porcupine",11,-0.53159294579805,-0.053159294579805,"Decline",10,10,"58.45,-111.06667"
"451",453,58.45,-111.06667,0,"Terrestrial","Mammalia","Spermophilus_franklinii","Franklin's ground squirrel",11,-0.595855812818923,-0.0595855812818923,"Decline",10,10,"58.45,-111.06667"
"452",454,41.96694,-82.53278,0,"Freshwater","Herps","Anaxyrus_americanus","American toad",8,-0.221848749616355,-0.0158463392583111,"Decline",14,6,"41.96694,-82.53278"
"453",455,58.45,-111.06667,0,"Terrestrial","Mammalia","Glaucomys_sabrinus","Northern flying squirrel",10,-0.032980708169736,-0.00366452312997067,"Decline",9,5,"58.45,-111.06667"
"454",456,41.96694,-82.53278,0,"Freshwater","Herps","Anaxyrus_americanus","American toad",4,0.602059991327963,0.0430042850948545,"Increase",14,2,"41.96694,-82.53278"
"455",457,58.45,-111.06667,0,"Terrestrial","Mammalia","Neovison_vison","Mink / American mink",6,0.01703333929878,0.00243333418554,"Stable",7,4,"58.45,-111.06667"
"456",458,41.96694,-82.53278,0,"Freshwater","Herps","Anaxyrus_americanus","American toad",2,-0.221848749616356,-0.221848749616356,"Decline",1,1,"41.96694,-82.53278"
"457",459,58.45,-111.06667,0,"Terrestrial","Mammalia","Mustela_frenata","Long-tailed weasel",10,-0.455105853542604,-0.0505673170602894,"Decline",9,4,"58.45,-111.06667"
"458",460,53.55,-113.5,0,"Terrestrial","Mammalia","Mustela_erminea","Stoat / Short-tailed weasel / Ermine",10,-0.399269745594206,-0.0443633050660229,"Decline",9,6,"53.55,-113.5"
"459",461,45.5,-78.06667,0,"Freshwater","Reptilia","Glyptemys_insculpta","Wood turtle",2,0.511883360978874,0.511883360978874,"Increase",1,0,"45.5,-78.06667"
"460",462,49.7,-112.83333,0,"Terrestrial","Reptilia","Crotalus_viridis","Green prairie rattlesnake",5,0.423392174925863,0.105848043731466,"Increase",4,1,"49.7,-112.83333"
"461",463,41.96694,-82.53278,0,"Freshwater","Herps","Anaxyrus_americanus","American toad",9,0.221848749616358,0.0130499264480211,"Increase",17,2,"41.96694,-82.53278"
"462",464,41.96694,-82.53278,0,"Freshwater","Herps","Anaxyrus_americanus","American toad",9,0.30102999566398,0.0188143747289987,"Increase",16,3,"41.96694,-82.53278"
"463",465,41.96694,-82.53278,0,"Freshwater","Herps","Anaxyrus_americanus","American toad",3,0.146128035678238,0.0162364484086931,"Increase",9,0,"41.96694,-82.53278"
"464",466,41.96694,-82.53278,0,"Freshwater","Herps","Anaxyrus_americanus","American toad",6,-0.17609125905568,-0.0103583093562165,"Decline",17,6,"41.96694,-82.53278"
"465",467,42.87999,-79.240319,0,"Freshwater","Amphibia","Anaxyrus_fowleri","Fowler's toad",6,0.387720843490351,0.0775441686980702,"Increase",5,3,"42.87999,-79.240319"
"466",468,45.1,-72.61667,0,"Freshwater","Reptilia","Glyptemys_insculpta","Wood turtle",2,-0.311091321671877,-0.0444416173816967,"Decline",7,7,"45.1,-72.61667"
"467",469,53.5,-50,0,"Marine","Mammalia","Pagophilus_groenlandicus","Harp seal",50,0.339376267016199,0.00692604626563671,"Increase",49,14,"53.5,-50"
"468",470,42.276928,-81.856583,0,"Freshwater","Amphibia","Anaxyrus_fowleri","Fowler's toad",4,-0.188567362425027,-0.0471418406062568,"Decline",4,2,"42.276928,-81.856583"
"469",471,49.11667,-61.1,0,"Marine","Actinopterygii","Cyclopterus_lumpus","Lumpfish / Lumpsucker",18,-0.28398168186292,-0.0167048048154659,"Decline",17,10,"49.11667,-61.1"
"470",472,51,-58,0,"Marine","Actinopterygii","Cyclopterus_lumpus","Lumpfish / Lumpsucker",18,-0.239909242476055,-0.0141123083809444,"Decline",17,9,"51,-58"
"471",473,48.95361,-62.13333,0,"Marine","Actinopterygii","Cyclopterus_lumpus","Lumpfish / Lumpsucker",15,-0.119482737411357,-0.00853448124366838,"Decline",14,7,"48.95361,-62.13333"
"472",474,42.579883,-80.417572,0,"Freshwater","Amphibia","Anaxyrus_fowleri","Fowler's toad",24,-0.407231412111549,-0.0177057135700673,"Decline",23,13,"42.579883,-80.417572"
"473",475,47.16858,-74.931907,0,"Freshwater","Actinopterygii","Anguilla_rostrata","American eel",32,-2.54319346061784,-0.063579836515446,"Decline",40,36,"47.16858,-74.931907"
"474",476,47.394909,-62.650653,0,"Freshwater","Actinopterygii","Anguilla_rostrata","American eel",60,0.0474583810533846,0.00079097301755641,"Increase",60,28,"47.394909,-62.650653"
"475",477,44,-63.08333,1,"Marine","Actinopterygii","Merluccius_bilinearis","Silver hake / Whiting",40,0.0989514946871841,0.0025372178124919,"Increase",39,19,"44,-63.08333"
"476",478,44.537006,-64.209251,0,"Freshwater","Actinopterygii","Anguilla_rostrata","American eel",19,-0.758114409035407,-0.0280783114457558,"Decline",27,16,"44.537006,-64.209251"
"477",479,49.761184,-57.771263,0,"Freshwater","Actinopterygii","Anguilla_rostrata","American eel",41,-0.335938819823264,-0.00839847049558161,"Decline",40,18,"49.761184,-57.771263"
"478",480,46.742075,-71.293384,1,"Freshwater","Actinopterygii","Anguilla_rostrata","American eel",24,-0.223821128390536,-0.00973135340828418,"Decline",23,23,"46.742075,-71.293384"
"479",481,44.152886,-77.229936,0,"Freshwater","Actinopterygii","Anguilla_rostrata","American eel",12,-1.86237071014023,-0.0931185355070114,"Decline",20,20,"44.152886,-77.229936"
"480",482,45.11111,-74.42417,1,"Freshwater","Actinopterygii","Anguilla_rostrata","American eel",32,-2.23920380496481,-0.0678546607565093,"Decline",33,20,"45.11111,-74.42417"
"481",483,45.68314,-61.87121,1,"Marine","Actinopterygii","Anguilla_rostrata","American eel",6,1.01307850997046e-15,2.02615701994091e-16,"Stable",5,3,"45.68314,-61.87121"
"482",484,46,-53.08333,1,"Marine","Actinopterygii","Scomber_scombrus","Atlantic mackerel",21,-1.06524141531011,-0.0367324625969003,"Decline",29,17,"46,-53.08333"
"483",485,48.9,-62.03333,1,"Marine","Actinopterygii","Reinhardtius_hippoglossoides","Greenland halibut",23,0.708170605202419,0.0321895729637463,"Increase",22,7,"48.9,-62.03333"
"484",486,46.383134,-62.11238,1,"Marine","Actinopterygii","Anguilla_rostrata","American eel",2,0,0,"Stable",6,0,"46.383134,-62.11238"
"485",487,46.475972,-64.710486,1,"Marine","Actinopterygii","Anguilla_rostrata","American eel",3,0.301029995663981,0.0602059991327962,"Increase",5,4,"46.475972,-64.710486"
"486",488,47.777114,-65.029957,1,"Marine","Actinopterygii","Anguilla_rostrata","American eel",2,-0.301029995663981,-0.0602059991327963,"Decline",5,5,"47.777114,-65.029957"
"487",489,65.5,-66,0,"Freshwater","Actinopterygii","Salvelinus_alpinus","Arctic charr",6,-0.213879819945081,-0.0356466366575135,"Decline",6,2,"65.5,-66"
"488",490,46.6243,-61.017433,1,"Marine","Actinopterygii","Anguilla_rostrata","American eel",3,-0.176091259055682,-0.088045629527841,"Decline",2,1,"46.6243,-61.017433"
"489",491,46.07815,-61.455567,1,"Marine","Actinopterygii","Anguilla_rostrata","American eel",7,0.180456064458132,0.030076010743022,"Increase",6,4,"46.07815,-61.455567"
"490",492,46.773778,-64.126831,1,"Marine","Actinopterygii","Anguilla_rostrata","American eel",4,-1.04083408558608e-15,-2.08166817117217e-16,"Stable",5,3,"46.773778,-64.126831"
"491",493,46.99527778,-65.56277778,1,"Marine","Actinopterygii","Anguilla_rostrata","American eel",6,0.954242509439325,0.190848501887865,"Increase",5,1,"46.99527778,-65.56277778"
"492",494,45.67583,-62.74132,1,"Marine","Actinopterygii","Anguilla_rostrata","American eel",5,0.301029995663981,0.0602059991327962,"Increase",5,0,"45.67583,-62.74132"
"493",495,45.8547,-63.66575,1,"Marine","Actinopterygii","Anguilla_rostrata","American eel",2,-0.477121254719662,-0.477121254719662,"Decline",1,1,"45.8547,-63.66575"
"494",496,46.665292,-64.861867,1,"Marine","Actinopterygii","Anguilla_rostrata","American eel",2,0,0,"Stable",3,0,"46.665292,-64.861867"
"495",497,55.2,-119.08306,0,"Freshwater","Amphibia","Lithobates_sylvaticus","Wood frog",7,-1.01728444915365,-0.169547408192275,"Decline",6,4,"55.2,-119.08306"
"496",498,55.2,-119.08306,0,"Freshwater","Amphibia","Pseudacris_maculata","Boreal chorus frog",6,-0.402487636422759,-0.0670812727371265,"Decline",6,3,"55.2,-119.08306"
"497",499,54.58333,-113.31667,0,"Freshwater","Amphibia","Lithobates_sylvaticus","Wood frog",10,0.265057034840894,0.0294507816489883,"Increase",9,0,"54.58333,-113.31667"
"498",500,54.58333,-113.31667,0,"Freshwater","Amphibia","Anaxyrus_boreas","Western toad / Boreal toad",10,-0.876696541225467,-0.0974107268028297,"Decline",9,9,"54.58333,-113.31667"
"499",501,54.58333,-113.31667,0,"Freshwater","Amphibia","Pseudacris_maculata","Boreal chorus frog",10,-1.12159277819231,-0.124621419799146,"Decline",9,6,"54.58333,-113.31667"
"500",502,55.457,-114.819,0,"Freshwater","Amphibia","Lithobates_sylvaticus","Wood frog",7,0.673082374043145,0.0961546248633064,"Increase",7,3,"55.457,-114.819"
"501",503,55.457,-114.819,0,"Freshwater","Amphibia","Anaxyrus_boreas","Western toad / Boreal toad",6,1.28462517955267,0.214104196592112,"Increase",6,1,"55.457,-114.819"
"502",504,55.457,-114.819,0,"Freshwater","Amphibia","Pseudacris_maculata","Boreal chorus frog",6,2.09177037335565,0.348628395559274,"Increase",6,1,"55.457,-114.819"
"503",505,53.4,-117.58333,0,"Freshwater","Amphibia","Lithobates_sylvaticus","Wood frog",7,-0.348593287087919,-0.0580988811813199,"Decline",6,3,"53.4,-117.58333"
"504",506,53.4,-117.58333,0,"Freshwater","Amphibia","Ambystoma_macrodactylum","Long-toed salamander",7,0.150512872652007,0.0250854787753346,"Increase",6,2,"53.4,-117.58333"
"505",507,53.4,-117.58333,0,"Freshwater","Amphibia","Anaxyrus_boreas","Western toad / Boreal toad",7,-0.276682693472762,-0.0461137822454603,"Decline",6,2,"53.4,-117.58333"
"506",508,49.63306,-110.2,0,"Freshwater","Amphibia","Ambystoma_mavortium","Western tiger salamander",5,0.074633618296903,0.0106619454709861,"Increase",7,5,"49.63306,-110.2"
"507",509,46.75123,-64.951922,1,"Marine","Actinopterygii","Anguilla_rostrata","American eel",6,-8.18789480661053e-16,-1.36464913443509e-16,"Stable",6,2,"46.75123,-64.951922"
"508",510,49.63306,-110.2,0,"Freshwater","Amphibia","Pseudacris_maculata","Boreal chorus frog",6,-0.402487636422758,-0.0574982337746797,"Decline",7,4,"49.63306,-110.2"
"509",511,47.341712,-64.965766,1,"Marine","Actinopterygii","Anguilla_rostrata","American eel",4,-2.77555756156289e-17,-9.25185853854297e-18,"Stable",3,1,"47.341712,-64.965766"
"510",512,46.46855,-63.446958,1,"Marine","Actinopterygii","Anguilla_rostrata","American eel",7,-0.187086643357144,-0.0311811072261907,"Decline",6,2,"46.46855,-63.446958"
"511",513,44.149251,-77.22225,1,"Freshwater","Actinopterygii","Anguilla_rostrata","American eel",9,-1.33266284353305,-0.0951902031095036,"Decline",14,6,"44.149251,-77.22225"
"512",514,43.28331,-79.85068,0,"Freshwater","Actinopterygii","Anguilla_rostrata","American eel",2,0.210853365314893,0.210853365314893,"Increase",1,0,"43.28331,-79.85068"
"513",515,46.42083333,-63.16583333,1,"Marine","Actinopterygii","Anguilla_rostrata","American eel",2,0,0,"Stable",3,0,"46.42083333,-63.16583333"
"514",516,47.777114,-65.029957,1,"Marine","Actinopterygii","Anguilla_rostrata","American eel",2,0,0,"Stable",3,0,"47.777114,-65.029957"
"515",517,46.07815,-61.455567,1,"Marine","Actinopterygii","Anguilla_rostrata","American eel",2,0.954242509439325,0.318080836479775,"Increase",3,0,"46.07815,-61.455567"
"516",518,46.75123,-64.951922,1,"Marine","Actinopterygii","Anguilla_rostrata","American eel",2,0.1249387366083,0.0416462455361,"Increase",3,0,"46.75123,-64.951922"
"517",519,46.66261181,-60.94524036,0,"Freshwater","Fish","Anguilla_rostrata","American Eel",2,0.0464591214082186,0.0464591214082186,"Increase",1,0,"46.66261181,-60.94524036"
"518",520,53,-54,0,"Marine","Actinopterygii","Sebastes_norvegicus","Golden redfish",27,-1.4507104535115,-0.0557965559042886,"Decline",26,18,"53,-54"
"519",521,46.416091,-63.074093,0,"Freshwater","Fish","Anguilla_rostrata","American eel",11,-0.110493632244914,-0.0100448756586285,"Decline",11,7,"46.416091,-63.074093"
"520",522,46.416091,-63.074093,0,"Freshwater","Fish","Anguilla_rostrata","American eel",10,0.575784438758711,0.0523440398871555,"Increase",11,5,"46.416091,-63.074093"
"521",523,53.499444,-131.17,0,"Marine","Actinopterygii","Anoplopoma_fimbria","Sablefish",46,-0.722182598953791,-0.0160485021989731,"Decline",45,37,"53.499444,-131.17"
"522",524,51.85732,-128.86062,0,"Marine","Actinopterygii","Anoplopoma_fimbria","Sablefish",8,0.0492836683826086,0.00410697236521739,"Increase",12,7,"51.85732,-128.86062"
"523",525,53.17,-130.82,0,"Marine","Actinopterygii","Anoplopoma_fimbria","Sablefish",6,0.184340337076688,0.0184340337076688,"Increase",10,4,"53.17,-130.82"
"524",526,47,-63,1,"Marine","Actinopterygii","Mallotus_villosus","Capelin",18,0.123642864772951,0.00650751919857636,"Increase",19,5,"47,-63"
"525",527,49.11667,-61.1,1,"Marine","Actinopterygii","Mallotus_villosus","Capelin",15,0.0748546687974698,0.00440321581161587,"Increase",17,11,"49.11667,-61.1"
"526",528,53.91667,-122.73333,0,"Freshwater","Actinopterygii","Acipenser_transmontanus","White sturgeon",2,-0.477121254719662,-0.477121254719662,"Decline",1,1,"53.91667,-122.73333"
"527",529,51.55194,-122.29333,0,"Freshwater","Actinopterygii","Acipenser_transmontanus","White sturgeon",5,0.778151250383643,0.194537812595911,"Increase",4,2,"51.55194,-122.29333"
"528",530,50.02556,-121.56306,0,"Freshwater","Actinopterygii","Acipenser_transmontanus","White sturgeon",5,-0.643452676486188,-0.160863169121547,"Decline",4,3,"50.02556,-121.56306"
"529",531,49.22056,-121.87972,0,"Freshwater","Actinopterygii","Acipenser_transmontanus","White sturgeon",4,0.687974620034556,0.229324873344852,"Increase",3,0,"49.22056,-121.87972"
"530",532,49.4825,-124.067222,0,"Marine","Mammalia","Orcinus_orca","Killer whale / Orca",30,0.0684817687086463,0.00236144030029815,"Increase",29,10,"49.4825,-124.067222"
"531",533,52.305873,-129.948255,0,"Marine","Mammalia","Orcinus_orca","Killer whale / Orca",20,0.235334997148146,0.0123860524814814,"Increase",19,0,"52.305873,-129.948255"
"532",534,49.31,-126.78,0,"Marine","Actinopterygii","Anoplopoma_fimbria","Sablefish",7,0.103030226802475,0.00858585223353955,"Increase",12,6,"49.31,-126.78"
"533",535,52,-132,0,"Marine","Actinopterygii","Anoplopoma_fimbria","Sablefish",7,-0.236295407523339,-0.0236295407523339,"Decline",10,5,"52,-132"
"534",536,49.35,-123.87,0,"Marine","Actinopterygii","Anoplopoma_fimbria","Sablefish",2,0.330741412321091,0.110247137440364,"Increase",3,0,"49.35,-123.87"
"535",537,49.31,-126.78,1,"Marine","Fish","Anoplopoma_fimbria","Sablefish",7,-0.0535607014146628,-0.00446339178455523,"Decline",12,8,"49.31,-126.78"
"536",538,53.135067,-132.70632,1,"Marine","Fish","Anoplopoma_fimbria","Sablefish",6,-0.255345575695125,-0.0255345575695125,"Decline",10,7,"53.135067,-132.70632"
"537",539,49.35,-123.87,1,"Marine","Fish","Anoplopoma_fimbria","Sablefish",2,0.584619798649803,0.194873266216601,"Increase",3,0,"49.35,-123.87"
"538",540,55.05,-113.11667,0,"Freshwater","Amphibia","Lithobates_sylvaticus","Wood frog",3,-0.77232170672292,-0.38616085336146,"Decline",2,2,"55.05,-113.11667"
"539",541,55.05,-113.11667,0,"Freshwater","Amphibia","Lithobates_sylvaticus","Wood frog",3,-0.443697499232713,-0.221848749616356,"Decline",2,2,"55.05,-113.11667"
"540",542,55.01667,-113.11667,0,"Freshwater","Amphibia","Lithobates_sylvaticus","Wood frog",5,0.397940008672038,0.0994850021680094,"Increase",4,2,"55.01667,-113.11667"
"541",543,55.01667,-113.11667,0,"Freshwater","Amphibia","Lithobates_sylvaticus","Wood frog",5,0.6232492903979,0.155812322599475,"Increase",4,2,"55.01667,-113.11667"
"542",544,55.03333,-111.11667,0,"Freshwater","Amphibia","Lithobates_sylvaticus","Wood frog",4,-0.149762320333332,-0.049920773444444,"Decline",3,2,"55.03333,-111.11667"
"543",545,55.03333,-111.11667,0,"Freshwater","Amphibia","Lithobates_sylvaticus","Wood frog",4,0.011147360775797,0.00371578692526567,"Stable",3,1,"55.03333,-111.11667"
"544",546,55.03333,-111.11667,0,"Freshwater","Amphibia","Lithobates_sylvaticus","Wood frog",4,0.176091259055682,0.058697086351894,"Increase",3,1,"55.03333,-111.11667"
"545",547,52,-132,0,"Marine","Actinopterygii","Antimora_microlepis","Finescale mora",7,-0.57697351913417,-0.057697351913417,"Decline",10,5,"52,-132"
"546",548,53.135067,-132.70632,1,"Marine","Fish","Antimora_microlepis","Finescale mora",6,-0.256029708700369,-0.0256029708700369,"Decline",10,7,"53.135067,-132.70632"
"547",549,45.68314,-61.87121,0,"Marine","Actinopterygii","Apeltes_quadracus","Fourspine stickleback",7,-0.549917674750514,-0.0916529457917523,"Decline",6,5,"45.68314,-61.87121"
"548",550,46.383134,-62.11238,0,"Marine","Actinopterygii","Apeltes_quadracus","Fourspine stickleback",7,-0.898949058044865,-0.149824843007477,"Decline",6,4,"46.383134,-62.11238"
"549",551,47.65259,-65.62222,0,"Marine","Actinopterygii","Apeltes_quadracus","Fourspine stickleback",2,-0.510384931147703,-0.510384931147703,"Decline",1,1,"47.65259,-65.62222"
"550",552,46.475972,-64.710486,0,"Marine","Actinopterygii","Apeltes_quadracus","Fourspine stickleback",7,-0.852328589281813,-0.142054764880302,"Decline",6,3,"46.475972,-64.710486"
"551",553,46.172776,-62.547863,0,"Marine","Actinopterygii","Apeltes_quadracus","Fourspine stickleback",5,-0.698970004336018,-0.139794000867204,"Decline",5,4,"46.172776,-62.547863"
"552",554,46.136433,-63.802767,0,"Marine","Actinopterygii","Apeltes_quadracus","Fourspine stickleback",5,-0.0669467896306131,-0.0133893579261226,"Decline",5,3,"46.136433,-63.802767"
"553",555,46.1827,-64.11454,0,"Marine","Actinopterygii","Apeltes_quadracus","Fourspine stickleback",2,0.0853023425740136,0.0853023425740136,"Increase",1,0,"46.1827,-64.11454"
"554",556,47.777114,-65.029957,0,"Marine","Actinopterygii","Apeltes_quadracus","Fourspine stickleback",7,0.981738683025684,0.163623113837614,"Increase",6,2,"47.777114,-65.029957"
"555",557,46.6243,-61.017433,0,"Marine","Actinopterygii","Apeltes_quadracus","Fourspine stickleback",3,-0.367850150366768,-0.183925075183384,"Decline",2,2,"46.6243,-61.017433"
"556",558,46.34102,-64.573724,0,"Marine","Actinopterygii","Apeltes_quadracus","Fourspine stickleback",7,-0.046921819627782,-0.00782030327129699,"Decline",6,3,"46.34102,-64.573724"
"557",559,46.19352778,-63.42713889,0,"Marine","Actinopterygii","Apeltes_quadracus","Fourspine stickleback",3,-0.602059991327963,-0.301029995663981,"Decline",2,2,"46.19352778,-63.42713889"
"558",560,46.98624,-65.57426,0,"Marine","Actinopterygii","Apeltes_quadracus","Fourspine stickleback",3,-0.477121254719663,-0.238560627359832,"Decline",2,1,"46.98624,-65.57426"
"559",561,46.23122,-63.14804,0,"Marine","Actinopterygii","Apeltes_quadracus","Fourspine stickleback",3,0.676693609624866,0.169173402406217,"Increase",4,1,"46.23122,-63.14804"
"560",562,47.789535,-64.646046,0,"Marine","Actinopterygii","Apeltes_quadracus","Fourspine stickleback",7,-0.204343327727395,-0.0340572212878992,"Decline",6,3,"47.789535,-64.646046"
"561",563,46.07815,-61.455567,0,"Marine","Actinopterygii","Apeltes_quadracus","Fourspine stickleback",7,-0.291899873278765,-0.0486499788797941,"Decline",6,3,"46.07815,-61.455567"
"562",564,46.51210099,-63.88889579,0,"Marine","Actinopterygii","Apeltes_quadracus","Fourspine stickleback",2,-0.133290810973066,-0.133290810973066,"Decline",1,1,"46.51210099,-63.88889579"
"563",565,60.25,-135.33333,0,"Terrestrial","Mammalia","Lynx_canadensis","Canadian lynx",8,-0.157189461308975,-0.0224556373298536,"Decline",7,3,"60.25,-135.33333"
"564",566,46.773778,-64.126831,0,"Marine","Actinopterygii","Apeltes_quadracus","Fourspine stickleback",7,-0.745122128710221,-0.124187021451703,"Decline",6,4,"46.773778,-64.126831"
"565",567,46.99527778,-65.56277778,0,"Marine","Actinopterygii","Apeltes_quadracus","Fourspine stickleback",7,-1.68304703823885,-0.280507839706475,"Decline",6,4,"46.99527778,-65.56277778"
"566",568,46.018891,-62.511072,0,"Marine","Actinopterygii","Apeltes_quadracus","Fourspine stickleback",6,0.0511525224473808,0.0102305044894762,"Increase",5,3,"46.018891,-62.511072"
"567",569,52.36667,-126.75,0,"Terrestrial","Mammalia","Ursus_arctos","Grizzly bear / Brown bear",5,-0.0845954949294852,-0.0211488737323713,"Decline",4,2,"52.36667,-126.75"
"568",570,52.36667,-126.75,0,"Terrestrial","Mammalia","Ursus_arctos","Grizzly bear / Brown bear",5,-1,-0.25,"Decline",4,2,"52.36667,-126.75"
"569",571,55.7,-121.8,0,"Terrestrial","Mammalia","Martes_americana","American marten",4,0.111150452122666,0.0370501507075555,"Increase",3,1,"55.7,-121.8"
"570",572,42.85,-79.58333,0,"Freshwater","Reptilia","Graptemys_geographica","Northern map turtle",6,-7.63278329429795e-16,-1.52655665885959e-16,"Stable",5,3,"42.85,-79.58333"
"571",573,42.55,-82.41667,0,"Freshwater","Reptilia","Graptemys_geographica","Northern map turtle",5,1.39794000867204,0.155326667630227,"Increase",9,1,"42.55,-82.41667"
"572",574,42.31778,-82.45056,0,"Freshwater","Reptilia","Graptemys_geographica","Northern map turtle",10,0.159734083963553,0.0177482315515059,"Increase",9,4,"42.31778,-82.45056"
"573",575,45.67583,-62.74132,0,"Marine","Actinopterygii","Apeltes_quadracus","Fourspine stickleback",7,-1.11002414256743,-0.185004023761239,"Decline",6,4,"45.67583,-62.74132"
"574",576,46.058533,-62.90725,0,"Marine","Actinopterygii","Apeltes_quadracus","Fourspine stickleback",6,-0.786423776349633,-0.157284755269927,"Decline",5,3,"46.058533,-62.90725"
"575",577,47.67109,-64.8083,0,"Marine","Actinopterygii","Apeltes_quadracus","Fourspine stickleback",2,0.155557828947904,0.155557828947904,"Increase",1,0,"47.67109,-64.8083"
"576",578,45.8547,-63.66575,0,"Marine","Actinopterygii","Apeltes_quadracus","Fourspine stickleback",7,-1.02263815606643,-0.170439692677739,"Decline",6,4,"45.8547,-63.66575"
"577",579,46.665292,-64.861867,0,"Marine","Actinopterygii","Apeltes_quadracus","Fourspine stickleback",5,0.235921377878067,0.0589803444695167,"Increase",4,2,"46.665292,-64.861867"
"578",580,45.85055,-63.739472,0,"Marine","Actinopterygii","Apeltes_quadracus","Fourspine stickleback",5,0.026173327813125,0.00654333195328126,"Increase",4,2,"45.85055,-63.739472"
